[
  {
    "name": "Achadas da Cruz",
    "lat": 32.8546,
    "lon": -17.2179,
    "country": "Portugal",
    "url": "https://magicseaweed.com/Spain-Portugal-Surf-Forecast/8/"
  },
  {
    "name": "Afife",
    "lat": 41.7754,
    "lon": -8.875,
    "country": "Portugal",
    "url": "https://magicseaweed.com/Spain-Portugal-Surf-Forecast/8/"
  },
  {
    "name": "Aguas Blancas - Ibiza",
    "lat": 39.0605,
    "lon": 1.5896,
    "country": "Spain",
    "url": "https://magicseaweed.com/Spain-Portugal-Surf-Forecast/8/"
  },
  {
    "name": "Aguçadoura",
    "lat": 41.4291,
    "lon": -8.7868,
    "country": "Portugal",
    "url": "https://magicseaweed.com/Spain-Portugal-Surf-Forecast/8/"
  },
  {
    "name": "Albarquel Beach",
    "lat": 38.5109,
    "lon": -8.9156,
    "country": "Portugal",
    "url": "https://magicseaweed.com/Spain-Portugal-Surf-Forecast/8/"
  },
  {
    "name": "Almagreira",
    "lat": 39.3798,
    "lon": -9.3156,
    "country": "Portugal",
    "url": "https://magicseaweed.com/Spain-Portugal-Surf-Forecast/8/"
  },
  {
    "name": "Alpertuche Beach",
    "lat": 38.4674,
    "lon": -8.9904,
    "country": "Portugal",
    "url": "https://magicseaweed.com/Spain-Portugal-Surf-Forecast/8/"
  },
  {
    "name": "Amoreira",
    "lat": 37.3533,
    "lon": -8.8497,
    "country": "Portugal",
    "url": "https://magicseaweed.com/Spain-Portugal-Surf-Forecast/8/"
  },
  {
    "name": "Arenal Castell",
    "lat": 40.0222,
    "lon": 4.1835,
    "country": "Spain",
    "url": "https://magicseaweed.com/Spain-Portugal-Surf-Forecast/8/"
  },
  {
    "name": "Arenal de Moris",
    "lat": 43.4745,
    "lon": -5.1755,
    "country": "Spain",
    "url": "https://magicseaweed.com/Spain-Portugal-Surf-Forecast/8/"
  },
  {
    "name": "Arrifana",
    "lat": 37.2942,
    "lon": -8.8721,
    "country": "Portugal",
    "url": "https://magicseaweed.com/Spain-Portugal-Surf-Forecast/8/"
  },
  {
    "name": "Aucanada - Mallorca",
    "lat": 39.8337,
    "lon": 3.156,
    "country": "Spain",
    "url": "https://magicseaweed.com/Spain-Portugal-Surf-Forecast/8/"
  },
  {
    "name": "Azurara",
    "lat": 41.3339,
    "lon": -8.7412,
    "country": "Portugal",
    "url": "https://magicseaweed.com/Spain-Portugal-Surf-Forecast/8/"
  },
  {
    "name": "Bakio",
    "lat": 43.4318,
    "lon": -2.8065,
    "country": "Spain",
    "url": "https://magicseaweed.com/Spain-Portugal-Surf-Forecast/8/"
  },
  {
    "name": "Baleal",
    "lat": 39.374,
    "lon": -9.3389,
    "country": "Portugal",
    "url": "https://magicseaweed.com/Spain-Portugal-Surf-Forecast/8/"
  },
  {
    "name": "Barbate",
    "lat": 36.1781,
    "lon": -5.9104,
    "country": "Spain",
    "url": "https://magicseaweed.com/Spain-Portugal-Surf-Forecast/8/"
  },
  {
    "name": "Barceloneta",
    "lat": 41.3729,
    "lon": 2.1907,
    "country": "Spain",
    "url": "https://magicseaweed.com/Spain-Portugal-Surf-Forecast/8/"
  },
  {
    "name": "Barrañan",
    "lat": 43.3133,
    "lon": -8.5466,
    "country": "Spain",
    "url": "https://magicseaweed.com/Spain-Portugal-Surf-Forecast/8/"
  },
  {
    "name": "Belgas",
    "lat": 39.4165,
    "lon": -9.2527,
    "country": "Portugal",
    "url": "https://magicseaweed.com/Spain-Portugal-Surf-Forecast/8/"
  },
  {
    "name": "Beliche",
    "lat": 37.0249,
    "lon": -8.9646,
    "country": "Portugal",
    "url": "https://magicseaweed.com/Spain-Portugal-Surf-Forecast/8/"
  },
  {
    "name": "Berria",
    "lat": 43.4659,
    "lon": -3.468,
    "country": "Spain",
    "url": "https://magicseaweed.com/Spain-Portugal-Surf-Forecast/8/"
  },
  {
    "name": "Bicas",
    "lat": 38.4538,
    "lon": -9.2001,
    "country": "Portugal",
    "url": "https://magicseaweed.com/Spain-Portugal-Surf-Forecast/8/"
  },
  {
    "name": "Buarcos",
    "lat": 40.1709,
    "lon": -8.8986,
    "country": "Portugal",
    "url": "https://magicseaweed.com/Spain-Portugal-Surf-Forecast/8/"
  },
  {
    "name": "Cabedelo",
    "lat": 40.14,
    "lon": -8.866,
    "country": "Portugal",
    "url": "https://magicseaweed.com/Spain-Portugal-Surf-Forecast/8/"
  },
  {
    "name": "Cabopino",
    "lat": 36.4825,
    "lon": -4.7432,
    "country": "Spain",
    "url": "https://magicseaweed.com/Spain-Portugal-Surf-Forecast/8/"
  },
  {
    "name": "Cadiz",
    "lat": 36.5205,
    "lon": -6.2876,
    "country": "Spain",
    "url": "https://magicseaweed.com/Spain-Portugal-Surf-Forecast/8/"
  },
  {
    "name": "Caion",
    "lat": 43.317,
    "lon": -8.611,
    "country": "Spain",
    "url": "https://magicseaweed.com/Spain-Portugal-Surf-Forecast/8/"
  },
  {
    "name": "Cala Agulla",
    "lat": 39.7229,
    "lon": 3.4534,
    "country": "Spain",
    "url": "https://magicseaweed.com/Spain-Portugal-Surf-Forecast/8/"
  },
  {
    "name": "Cala Biniancolla",
    "lat": 39.8125,
    "lon": 4.2631,
    "country": "Spain",
    "url": "https://magicseaweed.com/Spain-Portugal-Surf-Forecast/8/"
  },
  {
    "name": "Cala Cantalar",
    "lat": 38.3537,
    "lon": -0.4203,
    "country": "Spain",
    "url": "https://magicseaweed.com/Spain-Portugal-Surf-Forecast/8/"
  },
  {
    "name": "Cala d'Alcaufar",
    "lat": 39.8298,
    "lon": 4.2948,
    "country": "Spain",
    "url": "https://magicseaweed.com/Spain-Portugal-Surf-Forecast/8/"
  },
  {
    "name": "Cala Magre",
    "lat": 37.605,
    "lon": -0.7243,
    "country": "Spain",
    "url": "https://magicseaweed.com/Spain-Portugal-Surf-Forecast/8/"
  },
  {
    "name": "Cala Major",
    "lat": 39.5518,
    "lon": 2.606,
    "country": "Spain",
    "url": "https://magicseaweed.com/Spain-Portugal-Surf-Forecast/8/"
  },
  {
    "name": "Cala Mandia",
    "lat": 39.5204,
    "lon": 3.3144,
    "country": "Spain",
    "url": "https://magicseaweed.com/Spain-Portugal-Surf-Forecast/8/"
  },
  {
    "name": "Cala Mesquida",
    "lat": 39.7451,
    "lon": 3.4339,
    "country": "Spain",
    "url": "https://magicseaweed.com/Spain-Portugal-Surf-Forecast/8/"
  },
  {
    "name": "Cala Nova - Ibiza",
    "lat": 39.0077,
    "lon": 1.5826,
    "country": "Spain",
    "url": "https://magicseaweed.com/Spain-Portugal-Surf-Forecast/8/"
  },
  {
    "name": "Cala'n Forcat",
    "lat": 39.9993,
    "lon": 3.7999,
    "country": "Spain",
    "url": "https://magicseaweed.com/Spain-Portugal-Surf-Forecast/8/"
  },
  {
    "name": "Calahonda",
    "lat": 36.488,
    "lon": -4.7118,
    "country": "Spain",
    "url": "https://magicseaweed.com/Spain-Portugal-Surf-Forecast/8/"
  },
  {
    "name": "Campelo",
    "lat": 43.5829,
    "lon": -8.2207,
    "country": "Spain",
    "url": "https://magicseaweed.com/Spain-Portugal-Surf-Forecast/8/"
  },
  {
    "name": "Can Pujols - Ibiza",
    "lat": 38.9715,
    "lon": 1.2762,
    "country": "Spain",
    "url": "https://magicseaweed.com/Spain-Portugal-Surf-Forecast/8/"
  },
  {
    "name": "Cantinho Da Baia",
    "lat": 39.3685,
    "lon": -9.3393,
    "country": "Portugal",
    "url": "https://magicseaweed.com/Spain-Portugal-Surf-Forecast/8/"
  },
  {
    "name": "Canyamel",
    "lat": 39.6551,
    "lon": 3.4426,
    "country": "Spain",
    "url": "https://magicseaweed.com/Spain-Portugal-Surf-Forecast/8/"
  },
  {
    "name": "Carcavelos",
    "lat": 38.6786,
    "lon": -9.3376,
    "country": "Portugal",
    "url": "https://magicseaweed.com/Spain-Portugal-Surf-Forecast/8/"
  },
  {
    "name": "Carrapateira",
    "lat": 37.1659,
    "lon": -8.9048,
    "country": "Portugal",
    "url": "https://magicseaweed.com/Spain-Portugal-Surf-Forecast/8/"
  },
  {
    "name": "Carregador",
    "lat": 40.2423,
    "lon": 0.2774,
    "country": "Spain",
    "url": "https://magicseaweed.com/Spain-Portugal-Surf-Forecast/8/"
  },
  {
    "name": "Carriagem",
    "lat": 37.3858,
    "lon": -8.8268,
    "country": "Portugal",
    "url": "https://magicseaweed.com/Spain-Portugal-Surf-Forecast/8/"
  },
  {
    "name": "Cero",
    "lat": 39.5545,
    "lon": 2.676,
    "country": "Spain",
    "url": "https://magicseaweed.com/Spain-Portugal-Surf-Forecast/8/"
  },
  {
    "name": "Cerro",
    "lat": 39.3634,
    "lon": -9.3685,
    "country": "Portugal",
    "url": "https://magicseaweed.com/Spain-Portugal-Surf-Forecast/8/"
  },
  {
    "name": "Club Nàutic Estartit",
    "lat": 42.05,
    "lon": 3.1998,
    "country": "Spain",
    "url": "https://magicseaweed.com/Spain-Portugal-Surf-Forecast/8/"
  },
  {
    "name": "Cogumelo",
    "lat": 37.7212,
    "lon": -8.7958,
    "country": "Portugal",
    "url": "https://magicseaweed.com/Spain-Portugal-Surf-Forecast/8/"
  },
  {
    "name": "Comporta (Praia do Pego)",
    "lat": 38.2926,
    "lon": -8.7801,
    "country": "Portugal",
    "url": "https://magicseaweed.com/Spain-Portugal-Surf-Forecast/8/"
  },
  {
    "name": "Conil",
    "lat": 36.2671,
    "lon": -6.0922,
    "country": "Spain",
    "url": "https://magicseaweed.com/Spain-Portugal-Surf-Forecast/8/"
  },
  {
    "name": "Consolação",
    "lat": 39.3235,
    "lon": -9.3623,
    "country": "Portugal",
    "url": "https://magicseaweed.com/Spain-Portugal-Surf-Forecast/8/"
  },
  {
    "name": "Cortegaca",
    "lat": 40.9383,
    "lon": -8.66,
    "country": "Portugal",
    "url": "https://magicseaweed.com/Spain-Portugal-Surf-Forecast/8/"
  },
  {
    "name": "Costa da Caparica",
    "lat": 38.641,
    "lon": -9.2418,
    "country": "Portugal",
    "url": "https://magicseaweed.com/Spain-Portugal-Surf-Forecast/8/"
  },
  {
    "name": "Cova do Vapor",
    "lat": 38.6618,
    "lon": -9.2624,
    "country": "Portugal",
    "url": "https://magicseaweed.com/Spain-Portugal-Surf-Forecast/8/"
  },
  {
    "name": "Coxos",
    "lat": 39.0012,
    "lon": -9.4278,
    "country": "Portugal",
    "url": "https://magicseaweed.com/Spain-Portugal-Surf-Forecast/8/"
  },
  {
    "name": "Deba",
    "lat": 43.3037,
    "lon": -2.3531,
    "country": "Spain",
    "url": "https://magicseaweed.com/Spain-Portugal-Surf-Forecast/8/"
  },
  {
    "name": "Doniños",
    "lat": 43.498,
    "lon": -8.3206,
    "country": "Spain",
    "url": "https://magicseaweed.com/Spain-Portugal-Surf-Forecast/8/"
  },
  {
    "name": "Eastern Beach",
    "lat": 36.1474,
    "lon": -5.3394,
    "country": "Spain",
    "url": "https://magicseaweed.com/Spain-Portugal-Surf-Forecast/8/"
  },
  {
    "name": "El Brusco",
    "lat": 43.4701,
    "lon": -3.4843,
    "country": "Spain",
    "url": "https://magicseaweed.com/Spain-Portugal-Surf-Forecast/8/"
  },
  {
    "name": "El Largo",
    "lat": 36.4784,
    "lon": -4.972,
    "country": "Spain",
    "url": "https://magicseaweed.com/Spain-Portugal-Surf-Forecast/8/"
  },
  {
    "name": "El Palmar",
    "lat": 36.23,
    "lon": -6.0716,
    "country": "Spain",
    "url": "https://magicseaweed.com/Spain-Portugal-Surf-Forecast/8/"
  },
  {
    "name": "El Saler",
    "lat": 39.3822,
    "lon": -0.3279,
    "country": "Spain",
    "url": "https://magicseaweed.com/Spain-Portugal-Surf-Forecast/8/"
  },
  {
    "name": "Els Prats",
    "lat": 41.0393,
    "lon": 0.9838,
    "country": "Spain",
    "url": "https://magicseaweed.com/Spain-Portugal-Surf-Forecast/8/"
  },
  {
    "name": "Ereaga",
    "lat": 43.3441,
    "lon": -3.0132,
    "country": "Spain",
    "url": "https://magicseaweed.com/Spain-Portugal-Surf-Forecast/8/"
  },
  {
    "name": "Ericeira",
    "lat": 38.959,
    "lon": -9.417,
    "country": "Portugal",
    "url": "https://magicseaweed.com/Spain-Portugal-Surf-Forecast/8/"
  },
  {
    "name": "Es Codolar",
    "lat": 38.8661,
    "lon": 1.3538,
    "country": "Spain",
    "url": "https://magicseaweed.com/Spain-Portugal-Surf-Forecast/8/"
  },
  {
    "name": "Esmoriz",
    "lat": 40.9613,
    "lon": -8.6521,
    "country": "Portugal",
    "url": "https://magicseaweed.com/Spain-Portugal-Surf-Forecast/8/"
  },
  {
    "name": "Espinho",
    "lat": 41.0084,
    "lon": -8.6502,
    "country": "Portugal",
    "url": "https://magicseaweed.com/Spain-Portugal-Surf-Forecast/8/"
  },
  {
    "name": "Esposende",
    "lat": 41.5466,
    "lon": -8.7944,
    "country": "Portugal",
    "url": "https://magicseaweed.com/Spain-Portugal-Surf-Forecast/8/"
  },
  {
    "name": "Fajã da Areia",
    "lat": 32.8124,
    "lon": -17.0392,
    "country": "Portugal",
    "url": "https://magicseaweed.com/Spain-Portugal-Surf-Forecast/8/"
  },
  {
    "name": "Falesia-Vilamoura",
    "lat": 37.0743,
    "lon": -8.1288,
    "country": "Portugal",
    "url": "https://magicseaweed.com/Spain-Portugal-Surf-Forecast/8/"
  },
  {
    "name": "Fão",
    "lat": 41.5201,
    "lon": -8.7902,
    "country": "Portugal",
    "url": "https://magicseaweed.com/Spain-Portugal-Surf-Forecast/8/"
  },
  {
    "name": "Faro de Calaburra - Andalucia",
    "lat": 36.5065,
    "lon": -4.6396,
    "country": "Spain",
    "url": "https://magicseaweed.com/Spain-Portugal-Surf-Forecast/8/"
  },
  {
    "name": "Fonte da Telha",
    "lat": 38.5728,
    "lon": -9.1985,
    "country": "Portugal",
    "url": "https://magicseaweed.com/Spain-Portugal-Surf-Forecast/8/"
  },
  {
    "name": "Foz",
    "lat": 43.5742,
    "lon": -7.2382,
    "country": "Spain",
    "url": "https://magicseaweed.com/Spain-Portugal-Surf-Forecast/8/"
  },
  {
    "name": "Foz do Arelho",
    "lat": 39.4354,
    "lon": -9.2329,
    "country": "Portugal",
    "url": "https://magicseaweed.com/Spain-Portugal-Surf-Forecast/8/"
  },
  {
    "name": "Foz do Lizandro",
    "lat": 38.9429,
    "lon": -9.4183,
    "country": "Portugal",
    "url": "https://magicseaweed.com/Spain-Portugal-Surf-Forecast/8/"
  },
  {
    "name": "Frejulfe",
    "lat": 43.5604,
    "lon": -6.6775,
    "country": "Spain",
    "url": "https://magicseaweed.com/Spain-Portugal-Surf-Forecast/8/"
  },
  {
    "name": "Furadouro",
    "lat": 40.8725,
    "lon": -8.6793,
    "country": "Portugal",
    "url": "https://magicseaweed.com/Spain-Portugal-Surf-Forecast/8/"
  },
  {
    "name": "Fuzeta Beach",
    "lat": 37.0431,
    "lon": -7.7443,
    "country": "Portugal",
    "url": "https://magicseaweed.com/Spain-Portugal-Surf-Forecast/8/"
  },
  {
    "name": "Galapos",
    "lat": 38.4845,
    "lon": -8.964,
    "country": "Portugal",
    "url": "https://magicseaweed.com/Spain-Portugal-Surf-Forecast/8/"
  },
  {
    "name": "Gerra",
    "lat": 43.3987,
    "lon": -4.3592,
    "country": "Spain",
    "url": "https://magicseaweed.com/Spain-Portugal-Surf-Forecast/8/"
  },
  {
    "name": "Gorrondatxa",
    "lat": 43.3802,
    "lon": -3.016,
    "country": "Spain",
    "url": "https://magicseaweed.com/Spain-Portugal-Surf-Forecast/8/"
  },
  {
    "name": "Jardim do Mar",
    "lat": 32.7373,
    "lon": -17.2132,
    "country": "Portugal",
    "url": "https://magicseaweed.com/Spain-Portugal-Surf-Forecast/8/"
  },
  {
    "name": "Jucar",
    "lat": 39.1534,
    "lon": -0.2349,
    "country": "Spain",
    "url": "https://magicseaweed.com/Spain-Portugal-Surf-Forecast/8/"
  },
  {
    "name": "Kontxa / La Concha",
    "lat": 43.317,
    "lon": -1.9881,
    "country": "Spain",
    "url": "https://magicseaweed.com/Spain-Portugal-Surf-Forecast/8/"
  },
  {
    "name": "La Arena",
    "lat": 43.3525,
    "lon": -3.1184,
    "country": "Spain",
    "url": "https://magicseaweed.com/Spain-Portugal-Surf-Forecast/8/"
  },
  {
    "name": "La Derecha",
    "lat": 35.2779,
    "lon": -2.9331,
    "country": "Spain",
    "url": "https://magicseaweed.com/Spain-Portugal-Surf-Forecast/8/"
  },
  {
    "name": "La Fosca",
    "lat": 41.8572,
    "lon": 3.1432,
    "country": "Spain",
    "url": "https://magicseaweed.com/Spain-Portugal-Surf-Forecast/8/"
  },
  {
    "name": "La Lanzada",
    "lat": 42.4498,
    "lon": -8.8799,
    "country": "Spain",
    "url": "https://magicseaweed.com/Spain-Portugal-Surf-Forecast/8/"
  },
  {
    "name": "La Manga del Mar Menor",
    "lat": 37.6467,
    "lon": -0.7113,
    "country": "Spain",
    "url": "https://magicseaweed.com/Spain-Portugal-Surf-Forecast/8/"
  },
  {
    "name": "La Mata - Valenciana",
    "lat": 38.0107,
    "lon": -0.6517,
    "country": "Spain",
    "url": "https://magicseaweed.com/Spain-Portugal-Surf-Forecast/8/"
  },
  {
    "name": "La Mojonera - Murcia",
    "lat": 37.5738,
    "lon": -1.2206,
    "country": "Spain",
    "url": "https://magicseaweed.com/Spain-Portugal-Surf-Forecast/8/"
  },
  {
    "name": "La Siesta",
    "lat": 38.7864,
    "lon": 0.183,
    "country": "Spain",
    "url": "https://magicseaweed.com/Spain-Portugal-Surf-Forecast/8/"
  },
  {
    "name": "Laga",
    "lat": 43.4099,
    "lon": -2.658,
    "country": "Spain",
    "url": "https://magicseaweed.com/Spain-Portugal-Surf-Forecast/8/"
  },
  {
    "name": "Lagide",
    "lat": 39.3755,
    "lon": -9.336,
    "country": "Portugal",
    "url": "https://magicseaweed.com/Spain-Portugal-Surf-Forecast/8/"
  },
  {
    "name": "Lagoa de Albufeira",
    "lat": 38.5089,
    "lon": -9.1848,
    "country": "Portugal",
    "url": "https://magicseaweed.com/Spain-Portugal-Surf-Forecast/8/"
  },
  {
    "name": "Lagos",
    "lat": 37.1097,
    "lon": -8.6588,
    "country": "Portugal",
    "url": "https://magicseaweed.com/Spain-Portugal-Surf-Forecast/8/"
  },
  {
    "name": "Lagos - Andalucia",
    "lat": 36.7445,
    "lon": -4.0229,
    "country": "Spain",
    "url": "https://magicseaweed.com/Spain-Portugal-Surf-Forecast/8/"
  },
  {
    "name": "Langre",
    "lat": 43.4768,
    "lon": -3.6894,
    "country": "Spain",
    "url": "https://magicseaweed.com/Spain-Portugal-Surf-Forecast/8/"
  },
  {
    "name": "Laredo",
    "lat": 43.4186,
    "lon": -3.4332,
    "country": "Spain",
    "url": "https://magicseaweed.com/Spain-Portugal-Surf-Forecast/8/"
  },
  {
    "name": "Leça",
    "lat": 41.1896,
    "lon": -8.7089,
    "country": "Portugal",
    "url": "https://magicseaweed.com/Spain-Portugal-Surf-Forecast/8/"
  },
  {
    "name": "Leirosa",
    "lat": 40.0567,
    "lon": -8.8925,
    "country": "Portugal",
    "url": "https://magicseaweed.com/Spain-Portugal-Surf-Forecast/8/"
  },
  {
    "name": "Liencres",
    "lat": 43.4517,
    "lon": -3.9651,
    "country": "Spain",
    "url": "https://magicseaweed.com/Spain-Portugal-Surf-Forecast/8/"
  },
  {
    "name": "Lisbon/Estoril",
    "lat": 38.7015,
    "lon": -9.4079,
    "country": "Portugal",
    "url": "https://magicseaweed.com/Spain-Portugal-Surf-Forecast/8/"
  },
  {
    "name": "Los Alamos - Andalucia",
    "lat": 36.6427,
    "lon": -4.4782,
    "country": "Spain",
    "url": "https://magicseaweed.com/Spain-Portugal-Surf-Forecast/8/"
  },
  {
    "name": "Los Caños",
    "lat": 36.1819,
    "lon": -6.0108,
    "country": "Spain",
    "url": "https://magicseaweed.com/Spain-Portugal-Surf-Forecast/8/"
  },
  {
    "name": "Los Locos",
    "lat": 43.4393,
    "lon": -4.0477,
    "country": "Spain",
    "url": "https://magicseaweed.com/Spain-Portugal-Surf-Forecast/8/"
  },
  {
    "name": "Louro",
    "lat": 42.7513,
    "lon": -9.0978,
    "country": "Spain",
    "url": "https://magicseaweed.com/Spain-Portugal-Surf-Forecast/8/"
  },
  {
    "name": "Lugar de Baixo",
    "lat": 32.6677,
    "lon": -17.0612,
    "country": "Portugal",
    "url": "https://magicseaweed.com/Spain-Portugal-Surf-Forecast/8/"
  },
  {
    "name": "Luz (Porto)",
    "lat": 41.1521,
    "lon": -8.6793,
    "country": "Portugal",
    "url": "https://magicseaweed.com/Spain-Portugal-Surf-Forecast/8/"
  },
  {
    "name": "Machico",
    "lat": 32.7138,
    "lon": -16.7591,
    "country": "Portugal",
    "url": "https://magicseaweed.com/Spain-Portugal-Surf-Forecast/8/"
  },
  {
    "name": "Madalena do Mar",
    "lat": 32.6994,
    "lon": -17.1366,
    "country": "Portugal",
    "url": "https://magicseaweed.com/Spain-Portugal-Surf-Forecast/8/"
  },
  {
    "name": "Malhão",
    "lat": 37.7833,
    "lon": -8.8048,
    "country": "Portugal",
    "url": "https://magicseaweed.com/Spain-Portugal-Surf-Forecast/8/"
  },
  {
    "name": "Malpica",
    "lat": 43.3241,
    "lon": -8.8145,
    "country": "Spain",
    "url": "https://magicseaweed.com/Spain-Portugal-Surf-Forecast/8/"
  },
  {
    "name": "Malvarrosa Beach",
    "lat": 39.4841,
    "lon": -0.3229,
    "country": "Spain",
    "url": "https://magicseaweed.com/Spain-Portugal-Surf-Forecast/8/"
  },
  {
    "name": "Marcelino",
    "lat": 38.6468,
    "lon": -9.2445,
    "country": "Portugal",
    "url": "https://magicseaweed.com/Spain-Portugal-Surf-Forecast/8/"
  },
  {
    "name": "Masnou",
    "lat": 41.4742,
    "lon": 2.3076,
    "country": "Spain",
    "url": "https://magicseaweed.com/Spain-Portugal-Surf-Forecast/8/"
  },
  {
    "name": "Matosinhos",
    "lat": 41.1754,
    "lon": -8.6907,
    "country": "Portugal",
    "url": "https://magicseaweed.com/Spain-Portugal-Surf-Forecast/8/"
  },
  {
    "name": "Meñakoz",
    "lat": 43.3976,
    "lon": -2.9871,
    "country": "Spain",
    "url": "https://magicseaweed.com/Spain-Portugal-Surf-Forecast/8/"
  },
  {
    "name": "Miramar",
    "lat": 41.0683,
    "lon": -8.6596,
    "country": "Portugal",
    "url": "https://magicseaweed.com/Spain-Portugal-Surf-Forecast/8/"
  },
  {
    "name": "Moledo",
    "lat": 41.8499,
    "lon": -8.8683,
    "country": "Portugal",
    "url": "https://magicseaweed.com/Spain-Portugal-Surf-Forecast/8/"
  },
  {
    "name": "Molho Leste",
    "lat": 39.3502,
    "lon": -9.3692,
    "country": "Portugal",
    "url": "https://magicseaweed.com/Spain-Portugal-Surf-Forecast/8/"
  },
  {
    "name": "Monte Clérigo",
    "lat": 37.3459,
    "lon": -8.8561,
    "country": "Portugal",
    "url": "https://magicseaweed.com/Spain-Portugal-Surf-Forecast/8/"
  },
  {
    "name": "Montgat",
    "lat": 41.4701,
    "lon": 2.2929,
    "country": "Spain",
    "url": "https://magicseaweed.com/Spain-Portugal-Surf-Forecast/8/"
  },
  {
    "name": "Mundaka",
    "lat": 43.4089,
    "lon": -2.695,
    "country": "Spain",
    "url": "https://magicseaweed.com/Spain-Portugal-Surf-Forecast/8/"
  },
  {
    "name": "Nazaré",
    "lat": 39.605,
    "lon": -9.0872,
    "country": "Portugal",
    "url": "https://magicseaweed.com/Spain-Portugal-Surf-Forecast/8/"
  },
  {
    "name": "Nemiña",
    "lat": 43.0081,
    "lon": -9.2647,
    "country": "Spain",
    "url": "https://magicseaweed.com/Spain-Portugal-Surf-Forecast/8/"
  },
  {
    "name": "Odeceixe",
    "lat": 37.4423,
    "lon": -8.8023,
    "country": "Portugal",
    "url": "https://magicseaweed.com/Spain-Portugal-Surf-Forecast/8/"
  },
  {
    "name": "Ondarreta",
    "lat": 43.3179,
    "lon": -2.0045,
    "country": "Spain",
    "url": "https://magicseaweed.com/Spain-Portugal-Surf-Forecast/8/"
  },
  {
    "name": "Orrua",
    "lat": 43.3043,
    "lon": -2.2402,
    "country": "Spain",
    "url": "https://magicseaweed.com/Spain-Portugal-Surf-Forecast/8/"
  },
  {
    "name": "Otur",
    "lat": 43.555,
    "lon": -6.596,
    "country": "Spain",
    "url": "https://magicseaweed.com/Spain-Portugal-Surf-Forecast/8/"
  },
  {
    "name": "Oyambre",
    "lat": 43.3945,
    "lon": -4.3318,
    "country": "Spain",
    "url": "https://magicseaweed.com/Spain-Portugal-Surf-Forecast/8/"
  },
  {
    "name": "Paço de Arcos",
    "lat": 38.69,
    "lon": -9.2957,
    "country": "Portugal",
    "url": "https://magicseaweed.com/Spain-Portugal-Surf-Forecast/8/"
  },
  {
    "name": "Paço de Arcos",
    "lat": 38.6901,
    "lon": -9.2961,
    "country": "Portugal",
    "url": "https://magicseaweed.com/Spain-Portugal-Surf-Forecast/8/"
  },
  {
    "name": "Paguera - Mallorca",
    "lat": 39.5337,
    "lon": 2.4558,
    "country": "Spain",
    "url": "https://magicseaweed.com/Spain-Portugal-Surf-Forecast/8/"
  },
  {
    "name": "Pantin",
    "lat": 43.6404,
    "lon": -8.1144,
    "country": "Spain",
    "url": "https://magicseaweed.com/Spain-Portugal-Surf-Forecast/8/"
  },
  {
    "name": "Paquebote",
    "lat": 38.8645,
    "lon": 0.0224,
    "country": "Spain",
    "url": "https://magicseaweed.com/Spain-Portugal-Surf-Forecast/8/"
  },
  {
    "name": "Patos",
    "lat": 42.1562,
    "lon": -8.8254,
    "country": "Spain",
    "url": "https://magicseaweed.com/Spain-Portugal-Surf-Forecast/8/"
  },
  {
    "name": "Pedra Branca",
    "lat": 38.9802,
    "lon": -9.4226,
    "country": "Portugal",
    "url": "https://magicseaweed.com/Spain-Portugal-Surf-Forecast/8/"
  },
  {
    "name": "Peñarronda",
    "lat": 43.5546,
    "lon": -6.9961,
    "country": "Spain",
    "url": "https://magicseaweed.com/Spain-Portugal-Surf-Forecast/8/"
  },
  {
    "name": "Peñarrubia",
    "lat": 43.5525,
    "lon": -5.6241,
    "country": "Spain",
    "url": "https://magicseaweed.com/Spain-Portugal-Surf-Forecast/8/"
  },
  {
    "name": "Peniscola",
    "lat": 40.3662,
    "lon": 0.4063,
    "country": "Spain",
    "url": "https://magicseaweed.com/Spain-Portugal-Surf-Forecast/8/"
  },
  {
    "name": "Perafita",
    "lat": 41.2204,
    "lon": -8.7176,
    "country": "Portugal",
    "url": "https://magicseaweed.com/Spain-Portugal-Surf-Forecast/8/"
  },
  {
    "name": "Plage Oued Allyene",
    "lat": 35.8275,
    "lon": -5.6487,
    "country": "Spain",
    "url": "https://magicseaweed.com/Spain-Portugal-Surf-Forecast/8/"
  },
  {
    "name": "Platja d'en Bossa",
    "lat": 38.8884,
    "lon": 1.4093,
    "country": "Spain",
    "url": "https://magicseaweed.com/Spain-Portugal-Surf-Forecast/8/"
  },
  {
    "name": "Platja de  Badalona",
    "lat": 41.4437,
    "lon": 2.2492,
    "country": "Spain",
    "url": "https://magicseaweed.com/Spain-Portugal-Surf-Forecast/8/"
  },
  {
    "name": "Platja de Canyelles",
    "lat": 41.7043,
    "lon": 2.8823,
    "country": "Spain",
    "url": "https://magicseaweed.com/Spain-Portugal-Surf-Forecast/8/"
  },
  {
    "name": "Platja de Canyelles",
    "lat": 42.247,
    "lon": 3.1966,
    "country": "Spain",
    "url": "https://magicseaweed.com/Spain-Portugal-Surf-Forecast/8/"
  },
  {
    "name": "Platja de Cavalleria - Menorca",
    "lat": 40.0602,
    "lon": 4.0749,
    "country": "Spain",
    "url": "https://magicseaweed.com/Spain-Portugal-Surf-Forecast/8/"
  },
  {
    "name": "Platja de Fenals",
    "lat": 41.6939,
    "lon": 2.8322,
    "country": "Spain",
    "url": "https://magicseaweed.com/Spain-Portugal-Surf-Forecast/8/"
  },
  {
    "name": "Platja de l'Auir",
    "lat": 39.0249,
    "lon": -0.175,
    "country": "Spain",
    "url": "https://magicseaweed.com/Spain-Portugal-Surf-Forecast/8/"
  },
  {
    "name": "Platja de la Pineda",
    "lat": 41.0765,
    "lon": 1.1837,
    "country": "Spain",
    "url": "https://magicseaweed.com/Spain-Portugal-Surf-Forecast/8/"
  },
  {
    "name": "Platja de Lloret",
    "lat": 41.6977,
    "lon": 2.8482,
    "country": "Spain",
    "url": "https://magicseaweed.com/Spain-Portugal-Surf-Forecast/8/"
  },
  {
    "name": "Platja de Miramar",
    "lat": 38.9573,
    "lon": -0.1226,
    "country": "Spain",
    "url": "https://magicseaweed.com/Spain-Portugal-Surf-Forecast/8/"
  },
  {
    "name": "Platja de Pals",
    "lat": 41.9928,
    "lon": 3.2018,
    "country": "Spain",
    "url": "https://magicseaweed.com/Spain-Portugal-Surf-Forecast/8/"
  },
  {
    "name": "Platja de San Juan - Valenciana",
    "lat": 38.3683,
    "lon": -0.4073,
    "country": "Spain",
    "url": "https://magicseaweed.com/Spain-Portugal-Surf-Forecast/8/"
  },
  {
    "name": "Platja de Sant Salvador",
    "lat": 41.1815,
    "lon": 1.5422,
    "country": "Spain",
    "url": "https://magicseaweed.com/Spain-Portugal-Surf-Forecast/8/"
  },
  {
    "name": "Platja de Santa Cistina",
    "lat": 41.6884,
    "lon": 2.8182,
    "country": "Spain",
    "url": "https://magicseaweed.com/Spain-Portugal-Surf-Forecast/8/"
  },
  {
    "name": "Platja de Segur",
    "lat": 41.1875,
    "lon": 1.583,
    "country": "Spain",
    "url": "https://magicseaweed.com/Spain-Portugal-Surf-Forecast/8/"
  },
  {
    "name": "Platja de ses Oliveres",
    "lat": 42.2857,
    "lon": 3.2861,
    "country": "Spain",
    "url": "https://magicseaweed.com/Spain-Portugal-Surf-Forecast/8/"
  },
  {
    "name": "Platja del Cau del Llop",
    "lat": 42.3605,
    "lon": 3.1629,
    "country": "Spain",
    "url": "https://magicseaweed.com/Spain-Portugal-Surf-Forecast/8/"
  },
  {
    "name": "Platja del Fortí",
    "lat": 40.4691,
    "lon": 0.4787,
    "country": "Spain",
    "url": "https://magicseaweed.com/Spain-Portugal-Surf-Forecast/8/"
  },
  {
    "name": "Platja del Fòrum",
    "lat": 41.416,
    "lon": 2.2311,
    "country": "Spain",
    "url": "https://magicseaweed.com/Spain-Portugal-Surf-Forecast/8/"
  },
  {
    "name": "Platja del Marjal",
    "lat": 40.5492,
    "lon": 0.5289,
    "country": "Spain",
    "url": "https://magicseaweed.com/Spain-Portugal-Surf-Forecast/8/"
  },
  {
    "name": "Platja des Figueral",
    "lat": 39.0528,
    "lon": 1.5942,
    "country": "Spain",
    "url": "https://magicseaweed.com/Spain-Portugal-Surf-Forecast/8/"
  },
  {
    "name": "Platja Gran",
    "lat": 42.2886,
    "lon": 3.2784,
    "country": "Spain",
    "url": "https://magicseaweed.com/Spain-Portugal-Surf-Forecast/8/"
  },
  {
    "name": "Platja Migjorn - Formentera",
    "lat": 38.6826,
    "lon": 1.4692,
    "country": "Spain",
    "url": "https://magicseaweed.com/Spain-Portugal-Surf-Forecast/8/"
  },
  {
    "name": "Platja Sa Tuna",
    "lat": 41.9604,
    "lon": 3.2296,
    "country": "Spain",
    "url": "https://magicseaweed.com/Spain-Portugal-Surf-Forecast/8/"
  },
  {
    "name": "Platja Salvatge Del Trabucador",
    "lat": 40.6202,
    "lon": 0.7364,
    "country": "Spain",
    "url": "https://magicseaweed.com/Spain-Portugal-Surf-Forecast/8/"
  },
  {
    "name": "Playa Abra",
    "lat": 42.1532,
    "lon": -8.8303,
    "country": "Spain",
    "url": "https://magicseaweed.com/Spain-Portugal-Surf-Forecast/8/"
  },
  {
    "name": "Playa Atalis",
    "lat": 39.91,
    "lon": 4.0469,
    "country": "Spain",
    "url": "https://magicseaweed.com/Spain-Portugal-Surf-Forecast/8/"
  },
  {
    "name": "Playa Barchinas",
    "lat": 43.5643,
    "lon": -6.4596,
    "country": "Spain",
    "url": "https://magicseaweed.com/Spain-Portugal-Surf-Forecast/8/"
  },
  {
    "name": "Playa Barinatxe",
    "lat": 43.3832,
    "lon": -3.0064,
    "country": "Spain",
    "url": "https://magicseaweed.com/Spain-Portugal-Surf-Forecast/8/"
  },
  {
    "name": "Playa Camposancos",
    "lat": 41.868,
    "lon": -8.8594,
    "country": "Portugal",
    "url": "https://magicseaweed.com/Spain-Portugal-Surf-Forecast/8/"
  },
  {
    "name": "Playa Centollera",
    "lat": 43.5508,
    "lon": -5.6108,
    "country": "Spain",
    "url": "https://magicseaweed.com/Spain-Portugal-Surf-Forecast/8/"
  },
  {
    "name": "Playa Cueva del Lobo",
    "lat": 37.1142,
    "lon": -1.838,
    "country": "Spain",
    "url": "https://magicseaweed.com/Spain-Portugal-Surf-Forecast/8/"
  },
  {
    "name": "Playa de A Concha",
    "lat": 43.7186,
    "lon": -7.8093,
    "country": "Spain",
    "url": "https://magicseaweed.com/Spain-Portugal-Surf-Forecast/8/"
  },
  {
    "name": "Playa de A Concha",
    "lat": 43.737,
    "lon": -7.8723,
    "country": "Spain",
    "url": "https://magicseaweed.com/Spain-Portugal-Surf-Forecast/8/"
  },
  {
    "name": "Playa de Babel",
    "lat": 38.3279,
    "lon": -0.5081,
    "country": "Spain",
    "url": "https://magicseaweed.com/Spain-Portugal-Surf-Forecast/8/"
  },
  {
    "name": "Playa de Baldayo",
    "lat": 43.3022,
    "lon": -8.6665,
    "country": "Spain",
    "url": "https://magicseaweed.com/Spain-Portugal-Surf-Forecast/8/"
  },
  {
    "name": "Playa de Bellreguart",
    "lat": 38.9635,
    "lon": -0.1283,
    "country": "Spain",
    "url": "https://magicseaweed.com/Spain-Portugal-Surf-Forecast/8/"
  },
  {
    "name": "Playa de Benitez",
    "lat": 35.8946,
    "lon": -5.3367,
    "country": "Spain",
    "url": "https://magicseaweed.com/Spain-Portugal-Surf-Forecast/8/"
  },
  {
    "name": "Playa de Bolnuevo",
    "lat": 37.5616,
    "lon": -1.3057,
    "country": "Spain",
    "url": "https://magicseaweed.com/Spain-Portugal-Surf-Forecast/8/"
  },
  {
    "name": "Playa de Bueu",
    "lat": 42.3276,
    "lon": -8.79,
    "country": "Spain",
    "url": "https://magicseaweed.com/Spain-Portugal-Surf-Forecast/8/"
  },
  {
    "name": "Playa de Cal-Blanque",
    "lat": 37.5976,
    "lon": -0.7503,
    "country": "Spain",
    "url": "https://magicseaweed.com/Spain-Portugal-Surf-Forecast/8/"
  },
  {
    "name": "Playa de Camposoto",
    "lat": 36.427,
    "lon": -6.2312,
    "country": "Spain",
    "url": "https://magicseaweed.com/Spain-Portugal-Surf-Forecast/8/"
  },
  {
    "name": "Playa de Carboneras",
    "lat": 37.0028,
    "lon": -1.8894,
    "country": "Spain",
    "url": "https://magicseaweed.com/Spain-Portugal-Surf-Forecast/8/"
  },
  {
    "name": "Playa de Carchuna/Calahonda",
    "lat": 36.6929,
    "lon": -3.4197,
    "country": "Spain",
    "url": "https://magicseaweed.com/Spain-Portugal-Surf-Forecast/8/"
  },
  {
    "name": "Playa de Castilla",
    "lat": 37.1465,
    "lon": -6.8677,
    "country": "Spain",
    "url": "https://magicseaweed.com/Spain-Portugal-Surf-Forecast/8/"
  },
  {
    "name": "Playa de Creixell",
    "lat": 41.1523,
    "lon": 1.4336,
    "country": "Spain",
    "url": "https://magicseaweed.com/Spain-Portugal-Surf-Forecast/8/"
  },
  {
    "name": "Playa de Cuarezo",
    "lat": 43.4945,
    "lon": -3.5381,
    "country": "Spain",
    "url": "https://magicseaweed.com/Spain-Portugal-Surf-Forecast/8/"
  },
  {
    "name": "Playa de Cuberris",
    "lat": 43.4993,
    "lon": -3.6128,
    "country": "Spain",
    "url": "https://magicseaweed.com/Spain-Portugal-Surf-Forecast/8/"
  },
  {
    "name": "Playa de es Trenc",
    "lat": 39.3455,
    "lon": 2.9837,
    "country": "Spain",
    "url": "https://magicseaweed.com/Spain-Portugal-Surf-Forecast/8/"
  },
  {
    "name": "Playa de Esteiro",
    "lat": 43.7119,
    "lon": -7.5615,
    "country": "Spain",
    "url": "https://magicseaweed.com/Spain-Portugal-Surf-Forecast/8/"
  },
  {
    "name": "Playa de Fatares",
    "lat": 37.5791,
    "lon": -1.0301,
    "country": "Spain",
    "url": "https://magicseaweed.com/Spain-Portugal-Surf-Forecast/8/"
  },
  {
    "name": "Playa de Getares",
    "lat": 36.0946,
    "lon": -5.4434,
    "country": "Spain",
    "url": "https://magicseaweed.com/Spain-Portugal-Surf-Forecast/8/"
  },
  {
    "name": "Playa de Gulpiyuri",
    "lat": 43.4489,
    "lon": -4.8849,
    "country": "Spain",
    "url": "https://magicseaweed.com/Spain-Portugal-Surf-Forecast/8/"
  },
  {
    "name": "Playa de Jeresa",
    "lat": 39.0415,
    "lon": -0.1871,
    "country": "Spain",
    "url": "https://magicseaweed.com/Spain-Portugal-Surf-Forecast/8/"
  },
  {
    "name": "Playa de la Albufereta",
    "lat": 38.3631,
    "lon": -0.4437,
    "country": "Spain",
    "url": "https://magicseaweed.com/Spain-Portugal-Surf-Forecast/8/"
  },
  {
    "name": "Playa de la Caleta",
    "lat": 36.7212,
    "lon": -4.4004,
    "country": "Spain",
    "url": "https://magicseaweed.com/Spain-Portugal-Surf-Forecast/8/"
  },
  {
    "name": "Playa de la Canonja",
    "lat": 41.0834,
    "lon": 1.1906,
    "country": "Spain",
    "url": "https://magicseaweed.com/Spain-Portugal-Surf-Forecast/8/"
  },
  {
    "name": "Playa de la Carihuela - Andalucia",
    "lat": 36.6008,
    "lon": -4.5044,
    "country": "Spain",
    "url": "https://magicseaweed.com/Spain-Portugal-Surf-Forecast/8/"
  },
  {
    "name": "Playa de La Chapineta",
    "lat": 37.5634,
    "lon": -1.1745,
    "country": "Spain",
    "url": "https://magicseaweed.com/Spain-Portugal-Surf-Forecast/8/"
  },
  {
    "name": "Playa de la Concha",
    "lat": 43.472,
    "lon": -3.7791,
    "country": "Spain",
    "url": "https://magicseaweed.com/Spain-Portugal-Surf-Forecast/8/"
  },
  {
    "name": "Playa de la Magdalena",
    "lat": 43.4672,
    "lon": -3.7739,
    "country": "Spain",
    "url": "https://magicseaweed.com/Spain-Portugal-Surf-Forecast/8/"
  },
  {
    "name": "Playa De La Ñora",
    "lat": 43.5479,
    "lon": -5.5905,
    "country": "Spain",
    "url": "https://magicseaweed.com/Spain-Portugal-Surf-Forecast/8/"
  },
  {
    "name": "Playa de la Parajola",
    "lat": 37.5805,
    "lon": -1.0125,
    "country": "Spain",
    "url": "https://magicseaweed.com/Spain-Portugal-Surf-Forecast/8/"
  },
  {
    "name": "Playa de la Ribera",
    "lat": 35.8872,
    "lon": -5.3157,
    "country": "Spain",
    "url": "https://magicseaweed.com/Spain-Portugal-Surf-Forecast/8/"
  },
  {
    "name": "Playa de la Victoria",
    "lat": 36.5051,
    "lon": -6.2795,
    "country": "Spain",
    "url": "https://magicseaweed.com/Spain-Portugal-Surf-Forecast/8/"
  },
  {
    "name": "Playa de Langosteira",
    "lat": 42.9199,
    "lon": -9.2629,
    "country": "Spain",
    "url": "https://magicseaweed.com/Spain-Portugal-Surf-Forecast/8/"
  },
  {
    "name": "Playa de las Alberquillas",
    "lat": 36.7487,
    "lon": -3.8065,
    "country": "Spain",
    "url": "https://magicseaweed.com/Spain-Portugal-Surf-Forecast/8/"
  },
  {
    "name": "Playa de las Covaticas",
    "lat": 37.5376,
    "lon": -1.369,
    "country": "Spain",
    "url": "https://magicseaweed.com/Spain-Portugal-Surf-Forecast/8/"
  },
  {
    "name": "Playa De Las Redes",
    "lat": 36.5985,
    "lon": -6.2756,
    "country": "Spain",
    "url": "https://magicseaweed.com/Spain-Portugal-Surf-Forecast/8/"
  },
  {
    "name": "Playa de Levante - Valencia",
    "lat": 39.4725,
    "lon": -0.3205,
    "country": "Spain",
    "url": "https://magicseaweed.com/Spain-Portugal-Surf-Forecast/8/"
  },
  {
    "name": "Playa de Limens",
    "lat": 42.2667,
    "lon": -8.8167,
    "country": "Spain",
    "url": "https://magicseaweed.com/Spain-Portugal-Surf-Forecast/8/"
  },
  {
    "name": "Playa de los Corraletes",
    "lat": 36.75,
    "lon": -2.2167,
    "country": "Spain",
    "url": "https://magicseaweed.com/Spain-Portugal-Surf-Forecast/8/"
  },
  {
    "name": "Playa de los Genoveses",
    "lat": 36.7451,
    "lon": -2.1204,
    "country": "Spain",
    "url": "https://magicseaweed.com/Spain-Portugal-Surf-Forecast/8/"
  },
  {
    "name": "Playa de los Lances",
    "lat": 36.0313,
    "lon": -5.6281,
    "country": "Spain",
    "url": "https://magicseaweed.com/Spain-Portugal-Surf-Forecast/8/"
  },
  {
    "name": "Playa de Meron",
    "lat": 43.3929,
    "lon": -4.3793,
    "country": "Spain",
    "url": "https://magicseaweed.com/Spain-Portugal-Surf-Forecast/8/"
  },
  {
    "name": "Playa de Negrete",
    "lat": 38.6051,
    "lon": -0.0399,
    "country": "Spain",
    "url": "https://magicseaweed.com/Spain-Portugal-Surf-Forecast/8/"
  },
  {
    "name": "Playa de Noja",
    "lat": 43.473,
    "lon": -3.5013,
    "country": "Spain",
    "url": "https://magicseaweed.com/Spain-Portugal-Surf-Forecast/8/"
  },
  {
    "name": "Playa de Oliva",
    "lat": 38.9221,
    "lon": -0.0832,
    "country": "Spain",
    "url": "https://magicseaweed.com/Spain-Portugal-Surf-Forecast/8/"
  },
  {
    "name": "Playa de Palo",
    "lat": 37.7689,
    "lon": -0.8137,
    "country": "Spain",
    "url": "https://magicseaweed.com/Spain-Portugal-Surf-Forecast/8/"
  },
  {
    "name": "Playa de Percheles",
    "lat": 37.5296,
    "lon": -1.3811,
    "country": "Spain",
    "url": "https://magicseaweed.com/Spain-Portugal-Surf-Forecast/8/"
  },
  {
    "name": "Playa de Ponent",
    "lat": 41.5288,
    "lon": 2.4407,
    "country": "Spain",
    "url": "https://magicseaweed.com/Spain-Portugal-Surf-Forecast/8/"
  },
  {
    "name": "Playa de Poniente",
    "lat": 38.5361,
    "lon": -0.1466,
    "country": "Spain",
    "url": "https://magicseaweed.com/Spain-Portugal-Surf-Forecast/8/"
  },
  {
    "name": "Playa de Poniente",
    "lat": 43.5434,
    "lon": -5.6731,
    "country": "Spain",
    "url": "https://magicseaweed.com/Spain-Portugal-Surf-Forecast/8/"
  },
  {
    "name": "Playa de Portus",
    "lat": 37.5839,
    "lon": -1.0714,
    "country": "Spain",
    "url": "https://magicseaweed.com/Spain-Portugal-Surf-Forecast/8/"
  },
  {
    "name": "Playa de Puerto Rey",
    "lat": 37.2036,
    "lon": -1.8098,
    "country": "Spain",
    "url": "https://magicseaweed.com/Spain-Portugal-Surf-Forecast/8/"
  },
  {
    "name": "Playa de Roda",
    "lat": 42.2249,
    "lon": -8.9016,
    "country": "Spain",
    "url": "https://magicseaweed.com/Spain-Portugal-Surf-Forecast/8/"
  },
  {
    "name": "Playa De Salon",
    "lat": 36.7436,
    "lon": -3.8777,
    "country": "Spain",
    "url": "https://magicseaweed.com/Spain-Portugal-Surf-Forecast/8/"
  },
  {
    "name": "Playa de San Amaro",
    "lat": 35.8961,
    "lon": -5.2998,
    "country": "Spain",
    "url": "https://magicseaweed.com/Spain-Portugal-Surf-Forecast/8/"
  },
  {
    "name": "Playa de San Antonio del Mar",
    "lat": 43.4594,
    "lon": -4.9281,
    "country": "Spain",
    "url": "https://magicseaweed.com/Spain-Portugal-Surf-Forecast/8/"
  },
  {
    "name": "Playa de Sant Simó",
    "lat": 41.5423,
    "lon": 2.4606,
    "country": "Spain",
    "url": "https://magicseaweed.com/Spain-Portugal-Surf-Forecast/8/"
  },
  {
    "name": "Playa de Santa Justa",
    "lat": 43.4286,
    "lon": -4.0957,
    "country": "Spain",
    "url": "https://magicseaweed.com/Spain-Portugal-Surf-Forecast/8/"
  },
  {
    "name": "Playa de Somo",
    "lat": 43.4578,
    "lon": -3.7425,
    "country": "Spain",
    "url": "https://magicseaweed.com/Spain-Portugal-Surf-Forecast/8/"
  },
  {
    "name": "Playa de Traba",
    "lat": 43.189,
    "lon": -9.0525,
    "country": "Spain",
    "url": "https://magicseaweed.com/Spain-Portugal-Surf-Forecast/8/"
  },
  {
    "name": "Playa de Valdearnas",
    "lat": 43.4474,
    "lon": -3.9789,
    "country": "Spain",
    "url": "https://magicseaweed.com/Spain-Portugal-Surf-Forecast/8/"
  },
  {
    "name": "Playa de Valdegrana",
    "lat": 36.5751,
    "lon": -6.2266,
    "country": "Spain",
    "url": "https://magicseaweed.com/Spain-Portugal-Surf-Forecast/8/"
  },
  {
    "name": "Playa de Venecia",
    "lat": 38.991,
    "lon": -0.1504,
    "country": "Spain",
    "url": "https://magicseaweed.com/Spain-Portugal-Surf-Forecast/8/"
  },
  {
    "name": "Playa del Barco Perdido",
    "lat": 37.6531,
    "lon": -0.7171,
    "country": "Spain",
    "url": "https://magicseaweed.com/Spain-Portugal-Surf-Forecast/8/"
  },
  {
    "name": "Playa del Bobar",
    "lat": 36.8269,
    "lon": -2.4046,
    "country": "Spain",
    "url": "https://magicseaweed.com/Spain-Portugal-Surf-Forecast/8/"
  },
  {
    "name": "Playa del Callao",
    "lat": 41.5391,
    "lon": 2.4557,
    "country": "Spain",
    "url": "https://magicseaweed.com/Spain-Portugal-Surf-Forecast/8/"
  },
  {
    "name": "Playa del Camello",
    "lat": 43.4695,
    "lon": -3.7757,
    "country": "Spain",
    "url": "https://magicseaweed.com/Spain-Portugal-Surf-Forecast/8/"
  },
  {
    "name": "Playa del Cervigón",
    "lat": 43.5483,
    "lon": -5.6391,
    "country": "Spain",
    "url": "https://magicseaweed.com/Spain-Portugal-Surf-Forecast/8/"
  },
  {
    "name": "Playa del Chorrillo",
    "lat": 35.8851,
    "lon": -5.3224,
    "country": "Spain",
    "url": "https://magicseaweed.com/Spain-Portugal-Surf-Forecast/8/"
  },
  {
    "name": "Playa del Cura",
    "lat": 37.9765,
    "lon": -0.6701,
    "country": "Spain",
    "url": "https://magicseaweed.com/Spain-Portugal-Surf-Forecast/8/"
  },
  {
    "name": "Playa del Dedo - Andalucia",
    "lat": 36.7157,
    "lon": -4.3492,
    "country": "Spain",
    "url": "https://magicseaweed.com/Spain-Portugal-Surf-Forecast/8/"
  },
  {
    "name": "Playa del Descargador",
    "lat": 37.619,
    "lon": -0.7085,
    "country": "Spain",
    "url": "https://magicseaweed.com/Spain-Portugal-Surf-Forecast/8/"
  },
  {
    "name": "Playa del Gorguel",
    "lat": 37.5772,
    "lon": -0.8769,
    "country": "Spain",
    "url": "https://magicseaweed.com/Spain-Portugal-Surf-Forecast/8/"
  },
  {
    "name": "Playa del Moro",
    "lat": 40.2301,
    "lon": 0.2726,
    "country": "Spain",
    "url": "https://magicseaweed.com/Spain-Portugal-Surf-Forecast/8/"
  },
  {
    "name": "Playa del Orzán",
    "lat": 43.3718,
    "lon": -8.406,
    "country": "Spain",
    "url": "https://magicseaweed.com/Spain-Portugal-Surf-Forecast/8/"
  },
  {
    "name": "Playa del Postiguet",
    "lat": 38.345,
    "lon": -0.4779,
    "country": "Spain",
    "url": "https://magicseaweed.com/Spain-Portugal-Surf-Forecast/8/"
  },
  {
    "name": "Playa del Rinconín",
    "lat": 43.5491,
    "lon": -5.639,
    "country": "Spain",
    "url": "https://magicseaweed.com/Spain-Portugal-Surf-Forecast/8/"
  },
  {
    "name": "Playa del Saladar",
    "lat": 38.2891,
    "lon": -0.5207,
    "country": "Spain",
    "url": "https://magicseaweed.com/Spain-Portugal-Surf-Forecast/8/"
  },
  {
    "name": "Playa del Silgar",
    "lat": 42.4007,
    "lon": -8.8116,
    "country": "Spain",
    "url": "https://magicseaweed.com/Spain-Portugal-Surf-Forecast/8/"
  },
  {
    "name": "Playa del Tarajal",
    "lat": 35.872,
    "lon": -5.3435,
    "country": "Spain",
    "url": "https://magicseaweed.com/Spain-Portugal-Surf-Forecast/8/"
  },
  {
    "name": "Playa del Varador",
    "lat": 41.5354,
    "lon": 2.4509,
    "country": "Spain",
    "url": "https://magicseaweed.com/Spain-Portugal-Surf-Forecast/8/"
  },
  {
    "name": "Playa do Matadeiro",
    "lat": 43.3755,
    "lon": -8.4039,
    "country": "Spain",
    "url": "https://magicseaweed.com/Spain-Portugal-Surf-Forecast/8/"
  },
  {
    "name": "Playa El Miracle",
    "lat": 41.1136,
    "lon": 1.2592,
    "country": "Spain",
    "url": "https://magicseaweed.com/Spain-Portugal-Surf-Forecast/8/"
  },
  {
    "name": "Playa España",
    "lat": 43.5458,
    "lon": -5.5296,
    "country": "Spain",
    "url": "https://magicseaweed.com/Spain-Portugal-Surf-Forecast/8/"
  },
  {
    "name": "Playa Gandario",
    "lat": 43.3422,
    "lon": -8.2379,
    "country": "Spain",
    "url": "https://magicseaweed.com/Spain-Portugal-Surf-Forecast/8/"
  },
  {
    "name": "Playa Jondal - Ibiza",
    "lat": 38.8672,
    "lon": 1.3163,
    "country": "Spain",
    "url": "https://magicseaweed.com/Spain-Portugal-Surf-Forecast/8/"
  },
  {
    "name": "Playa Los Biquinis",
    "lat": 43.4677,
    "lon": -3.7699,
    "country": "Spain",
    "url": "https://magicseaweed.com/Spain-Portugal-Surf-Forecast/8/"
  },
  {
    "name": "Playa Los Mayanes",
    "lat": 43.5451,
    "lon": -5.6438,
    "country": "Spain",
    "url": "https://magicseaweed.com/Spain-Portugal-Surf-Forecast/8/"
  },
  {
    "name": "Playa Los Peligros",
    "lat": 43.4663,
    "lon": -3.7773,
    "country": "Spain",
    "url": "https://magicseaweed.com/Spain-Portugal-Surf-Forecast/8/"
  },
  {
    "name": "Playa Melide",
    "lat": 42.2516,
    "lon": -8.8664,
    "country": "Spain",
    "url": "https://magicseaweed.com/Spain-Portugal-Surf-Forecast/8/"
  },
  {
    "name": "Playa Muchavista",
    "lat": 38.3955,
    "lon": -0.4067,
    "country": "Spain",
    "url": "https://magicseaweed.com/Spain-Portugal-Surf-Forecast/8/"
  },
  {
    "name": "Playa Quintana",
    "lat": 43.5572,
    "lon": -6.4052,
    "country": "Spain",
    "url": "https://magicseaweed.com/Spain-Portugal-Surf-Forecast/8/"
  },
  {
    "name": "Playa Romana",
    "lat": 40.2341,
    "lon": 0.2737,
    "country": "Spain",
    "url": "https://magicseaweed.com/Spain-Portugal-Surf-Forecast/8/"
  },
  {
    "name": "Playa S'Argamassa",
    "lat": 38.9919,
    "lon": 1.5687,
    "country": "Spain",
    "url": "https://magicseaweed.com/Spain-Portugal-Surf-Forecast/8/"
  },
  {
    "name": "Playa Sa Rapita",
    "lat": 39.3598,
    "lon": 2.9643,
    "country": "Spain",
    "url": "https://magicseaweed.com/Spain-Portugal-Surf-Forecast/8/"
  },
  {
    "name": "Playa San Julián",
    "lat": 43.4128,
    "lon": -3.3704,
    "country": "Spain",
    "url": "https://magicseaweed.com/Spain-Portugal-Surf-Forecast/8/"
  },
  {
    "name": "Playa Son Caliu",
    "lat": 39.5234,
    "lon": 2.5427,
    "country": "Spain",
    "url": "https://magicseaweed.com/Spain-Portugal-Surf-Forecast/8/"
  },
  {
    "name": "Playa Vega",
    "lat": 43.4817,
    "lon": -5.1388,
    "country": "Spain",
    "url": "https://magicseaweed.com/Spain-Portugal-Surf-Forecast/8/"
  },
  {
    "name": "Playas de Fornells",
    "lat": 40.0502,
    "lon": 4.1084,
    "country": "Spain",
    "url": "https://magicseaweed.com/Spain-Portugal-Surf-Forecast/8/"
  },
  {
    "name": "Playas de Mendia",
    "lat": 43.3934,
    "lon": -4.5575,
    "country": "Spain",
    "url": "https://magicseaweed.com/Spain-Portugal-Surf-Forecast/8/"
  },
  {
    "name": "Playón de Bayas",
    "lat": 43.5778,
    "lon": -6.0439,
    "country": "Spain",
    "url": "https://magicseaweed.com/Spain-Portugal-Surf-Forecast/8/"
  },
  {
    "name": "Plentzia",
    "lat": 43.414,
    "lon": -2.945,
    "country": "Spain",
    "url": "https://magicseaweed.com/Spain-Portugal-Surf-Forecast/8/"
  },
  {
    "name": "Ponta do Tristão",
    "lat": 32.8702,
    "lon": -17.1884,
    "country": "Portugal",
    "url": "https://magicseaweed.com/Spain-Portugal-Surf-Forecast/8/"
  },
  {
    "name": "Ponta Paul",
    "lat": 32.7656,
    "lon": -17.2382,
    "country": "Portugal",
    "url": "https://magicseaweed.com/Spain-Portugal-Surf-Forecast/8/"
  },
  {
    "name": "Ponzos",
    "lat": 43.5579,
    "lon": -8.2662,
    "country": "Spain",
    "url": "https://magicseaweed.com/Spain-Portugal-Surf-Forecast/8/"
  },
  {
    "name": "Port Ginesta",
    "lat": 41.2618,
    "lon": 1.9298,
    "country": "Spain",
    "url": "https://magicseaweed.com/Spain-Portugal-Surf-Forecast/8/"
  },
  {
    "name": "Port Ginesta",
    "lat": 41.2602,
    "lon": 1.9293,
    "country": "Spain",
    "url": "https://magicseaweed.com/Spain-Portugal-Surf-Forecast/8/"
  },
  {
    "name": "Porto Covo",
    "lat": 37.8571,
    "lon": -8.7943,
    "country": "Portugal",
    "url": "https://magicseaweed.com/Spain-Portugal-Surf-Forecast/8/"
  },
  {
    "name": "Porto da Cruz",
    "lat": 32.7751,
    "lon": -16.8289,
    "country": "Portugal",
    "url": "https://magicseaweed.com/Spain-Portugal-Surf-Forecast/8/"
  },
  {
    "name": "Póvoa do Varzim",
    "lat": 41.3847,
    "lon": -8.777,
    "country": "Portugal",
    "url": "https://magicseaweed.com/Spain-Portugal-Surf-Forecast/8/"
  },
  {
    "name": "Praia América",
    "lat": 42.1333,
    "lon": -8.8167,
    "country": "Spain",
    "url": "https://magicseaweed.com/Spain-Portugal-Surf-Forecast/8/"
  },
  {
    "name": "Praia Azul",
    "lat": 39.1176,
    "lon": -9.3954,
    "country": "Portugal",
    "url": "https://magicseaweed.com/Spain-Portugal-Surf-Forecast/8/"
  },
  {
    "name": "Praia Borna",
    "lat": 42.2808,
    "lon": -8.6983,
    "country": "Spain",
    "url": "https://magicseaweed.com/Spain-Portugal-Surf-Forecast/8/"
  },
  {
    "name": "Praia Canido",
    "lat": 42.194,
    "lon": -8.7975,
    "country": "Spain",
    "url": "https://magicseaweed.com/Spain-Portugal-Surf-Forecast/8/"
  },
  {
    "name": "Praia Castelejo",
    "lat": 37.1006,
    "lon": -8.9466,
    "country": "Portugal",
    "url": "https://magicseaweed.com/Spain-Portugal-Surf-Forecast/8/"
  },
  {
    "name": "Praia da Adraga",
    "lat": 38.8036,
    "lon": -9.485,
    "country": "Portugal",
    "url": "https://magicseaweed.com/Spain-Portugal-Surf-Forecast/8/"
  },
  {
    "name": "Praia da Aguda",
    "lat": 38.8519,
    "lon": -9.4555,
    "country": "Portugal",
    "url": "https://magicseaweed.com/Spain-Portugal-Surf-Forecast/8/"
  },
  {
    "name": "Praia da Amoreira",
    "lat": 39.1267,
    "lon": -9.3894,
    "country": "Portugal",
    "url": "https://magicseaweed.com/Spain-Portugal-Surf-Forecast/8/"
  },
  {
    "name": "Praia da Ana",
    "lat": 37.0918,
    "lon": -8.6684,
    "country": "Portugal",
    "url": "https://magicseaweed.com/Spain-Portugal-Surf-Forecast/8/"
  },
  {
    "name": "Praia da Angrinha",
    "lat": 37.1186,
    "lon": -8.5226,
    "country": "Portugal",
    "url": "https://magicseaweed.com/Spain-Portugal-Surf-Forecast/8/"
  },
  {
    "name": "Praia Da Areia Branca",
    "lat": 39.2654,
    "lon": -9.337,
    "country": "Portugal",
    "url": "https://magicseaweed.com/Spain-Portugal-Surf-Forecast/8/"
  },
  {
    "name": "Praia da Baleeira",
    "lat": 37.0819,
    "lon": -8.2614,
    "country": "Portugal",
    "url": "https://magicseaweed.com/Spain-Portugal-Surf-Forecast/8/"
  },
  {
    "name": "Praia da Baleia",
    "lat": 38.9551,
    "lon": -9.4175,
    "country": "Portugal",
    "url": "https://magicseaweed.com/Spain-Portugal-Surf-Forecast/8/"
  },
  {
    "name": "Praia da Barra",
    "lat": 40.6344,
    "lon": -8.751,
    "country": "Portugal",
    "url": "https://magicseaweed.com/Spain-Portugal-Surf-Forecast/8/"
  },
  {
    "name": "Praia da Bordeira",
    "lat": 37.2018,
    "lon": -8.9044,
    "country": "Portugal",
    "url": "https://magicseaweed.com/Spain-Portugal-Surf-Forecast/8/"
  },
  {
    "name": "Praia da Calzoa",
    "lat": 42.2024,
    "lon": -8.7821,
    "country": "Spain",
    "url": "https://magicseaweed.com/Spain-Portugal-Surf-Forecast/8/"
  },
  {
    "name": "Praia da Coelha",
    "lat": 37.0734,
    "lon": -8.2943,
    "country": "Portugal",
    "url": "https://magicseaweed.com/Spain-Portugal-Surf-Forecast/8/"
  },
  {
    "name": "Praia da Comenda",
    "lat": 38.5091,
    "lon": -8.9224,
    "country": "Portugal",
    "url": "https://magicseaweed.com/Spain-Portugal-Surf-Forecast/8/"
  },
  {
    "name": "Praia da Conceição",
    "lat": 38.7001,
    "lon": -9.4164,
    "country": "Portugal",
    "url": "https://magicseaweed.com/Spain-Portugal-Surf-Forecast/8/"
  },
  {
    "name": "Praia da Cordoama",
    "lat": 37.1102,
    "lon": -8.9398,
    "country": "Portugal",
    "url": "https://magicseaweed.com/Spain-Portugal-Surf-Forecast/8/"
  },
  {
    "name": "Praia da Corredoura",
    "lat": 37.0874,
    "lon": -8.4216,
    "country": "Portugal",
    "url": "https://magicseaweed.com/Spain-Portugal-Surf-Forecast/8/"
  },
  {
    "name": "Praia da Crismina",
    "lat": 38.7261,
    "lon": -9.4769,
    "country": "Portugal",
    "url": "https://magicseaweed.com/Spain-Portugal-Surf-Forecast/8/"
  },
  {
    "name": "Praia da Cruz Quebrada",
    "lat": 38.6995,
    "lon": -9.2522,
    "country": "Portugal",
    "url": "https://magicseaweed.com/Spain-Portugal-Surf-Forecast/8/"
  },
  {
    "name": "Praia da Duquesa",
    "lat": 38.7008,
    "lon": -9.4148,
    "country": "Portugal",
    "url": "https://magicseaweed.com/Spain-Portugal-Surf-Forecast/8/"
  },
  {
    "name": "Praia da Frouxeira",
    "lat": 43.6135,
    "lon": -8.1731,
    "country": "Spain",
    "url": "https://magicseaweed.com/Spain-Portugal-Surf-Forecast/8/"
  },
  {
    "name": "Praia da Lagoa",
    "lat": 42.5695,
    "lon": -9.0437,
    "country": "Spain",
    "url": "https://magicseaweed.com/Spain-Portugal-Surf-Forecast/8/"
  },
  {
    "name": "Praia da Laje",
    "lat": 38.6838,
    "lon": -9.3125,
    "country": "Portugal",
    "url": "https://magicseaweed.com/Spain-Portugal-Surf-Forecast/8/"
  },
  {
    "name": "Praia da Luz",
    "lat": 37.0859,
    "lon": -8.725,
    "country": "Portugal",
    "url": "https://magicseaweed.com/Spain-Portugal-Surf-Forecast/8/"
  },
  {
    "name": "Praia da Madalena",
    "lat": 41.1033,
    "lon": -8.662,
    "country": "Portugal",
    "url": "https://magicseaweed.com/Spain-Portugal-Surf-Forecast/8/"
  },
  {
    "name": "Praia da Marinha",
    "lat": 37.0897,
    "lon": -8.412,
    "country": "Portugal",
    "url": "https://magicseaweed.com/Spain-Portugal-Surf-Forecast/8/"
  },
  {
    "name": "Praia da Murração",
    "lat": 37.155,
    "lon": -8.9093,
    "country": "Portugal",
    "url": "https://magicseaweed.com/Spain-Portugal-Surf-Forecast/8/"
  },
  {
    "name": "Praia da Pena Furada",
    "lat": 37.1472,
    "lon": -8.916,
    "country": "Portugal",
    "url": "https://magicseaweed.com/Spain-Portugal-Surf-Forecast/8/"
  },
  {
    "name": "Praia da Ponta Ruiva",
    "lat": 37.0689,
    "lon": -8.9644,
    "country": "Portugal",
    "url": "https://magicseaweed.com/Spain-Portugal-Surf-Forecast/8/"
  },
  {
    "name": "Praia da Questa",
    "lat": 38.4842,
    "lon": -8.9047,
    "country": "Portugal",
    "url": "https://magicseaweed.com/Spain-Portugal-Surf-Forecast/8/"
  },
  {
    "name": "Praia da Rainha",
    "lat": 38.616,
    "lon": -9.2192,
    "country": "Portugal",
    "url": "https://magicseaweed.com/Spain-Portugal-Surf-Forecast/8/"
  },
  {
    "name": "Praia da Ribeira de Cascais",
    "lat": 38.6992,
    "lon": -9.4179,
    "country": "Portugal",
    "url": "https://magicseaweed.com/Spain-Portugal-Surf-Forecast/8/"
  },
  {
    "name": "Praia da Rocha",
    "lat": 37.1114,
    "lon": -8.5306,
    "country": "Portugal",
    "url": "https://magicseaweed.com/Spain-Portugal-Surf-Forecast/8/"
  },
  {
    "name": "Praia da Samarra",
    "lat": 38.8969,
    "lon": -9.435,
    "country": "Portugal",
    "url": "https://magicseaweed.com/Spain-Portugal-Surf-Forecast/8/"
  },
  {
    "name": "Praia da Saude",
    "lat": 38.5173,
    "lon": -8.9055,
    "country": "Portugal",
    "url": "https://magicseaweed.com/Spain-Portugal-Surf-Forecast/8/"
  },
  {
    "name": "Praia da Saude",
    "lat": 38.6294,
    "lon": -9.2299,
    "country": "Portugal",
    "url": "https://magicseaweed.com/Spain-Portugal-Surf-Forecast/8/"
  },
  {
    "name": "Praia da Tocha",
    "lat": 40.3299,
    "lon": -8.8446,
    "country": "Portugal",
    "url": "https://magicseaweed.com/Spain-Portugal-Surf-Forecast/8/"
  },
  {
    "name": "Praia da Ursa",
    "lat": 38.7902,
    "lon": -9.4925,
    "country": "Portugal",
    "url": "https://magicseaweed.com/Spain-Portugal-Surf-Forecast/8/"
  },
  {
    "name": "Praia da Vagueira",
    "lat": 40.5651,
    "lon": -8.7694,
    "country": "Portugal",
    "url": "https://magicseaweed.com/Spain-Portugal-Surf-Forecast/8/"
  },
  {
    "name": "Praia da Vide",
    "lat": 38.9172,
    "lon": -9.428,
    "country": "Portugal",
    "url": "https://magicseaweed.com/Spain-Portugal-Surf-Forecast/8/"
  },
  {
    "name": "Praia das Furnas",
    "lat": 37.7162,
    "lon": -8.7862,
    "country": "Portugal",
    "url": "https://magicseaweed.com/Spain-Portugal-Surf-Forecast/8/"
  },
  {
    "name": "Praia das Illas",
    "lat": 43.5563,
    "lon": -7.1386,
    "country": "Spain",
    "url": "https://magicseaweed.com/Spain-Portugal-Surf-Forecast/8/"
  },
  {
    "name": "Praia das Maçãs",
    "lat": 38.8268,
    "lon": -9.472,
    "country": "Portugal",
    "url": "https://magicseaweed.com/Spain-Portugal-Surf-Forecast/8/"
  },
  {
    "name": "Praia das Moitas",
    "lat": 38.7016,
    "lon": -9.4098,
    "country": "Portugal",
    "url": "https://magicseaweed.com/Spain-Portugal-Surf-Forecast/8/"
  },
  {
    "name": "Praia das Paredes",
    "lat": 39.7024,
    "lon": -9.0516,
    "country": "Portugal",
    "url": "https://magicseaweed.com/Spain-Portugal-Surf-Forecast/8/"
  },
  {
    "name": "Praia de Almograve",
    "lat": 37.6522,
    "lon": -8.8019,
    "country": "Portugal",
    "url": "https://magicseaweed.com/Spain-Portugal-Surf-Forecast/8/"
  },
  {
    "name": "Praia de Alvor",
    "lat": 37.1227,
    "lon": -8.6001,
    "country": "Portugal",
    "url": "https://magicseaweed.com/Spain-Portugal-Surf-Forecast/8/"
  },
  {
    "name": "Praia de Bares",
    "lat": 43.7696,
    "lon": -7.6762,
    "country": "Spain",
    "url": "https://magicseaweed.com/Spain-Portugal-Surf-Forecast/8/"
  },
  {
    "name": "Praia de Carril",
    "lat": 42.2235,
    "lon": -8.7649,
    "country": "Spain",
    "url": "https://magicseaweed.com/Spain-Portugal-Surf-Forecast/8/"
  },
  {
    "name": "Praia de Caxias",
    "lat": 38.6985,
    "lon": -9.2796,
    "country": "Portugal",
    "url": "https://magicseaweed.com/Spain-Portugal-Surf-Forecast/8/"
  },
  {
    "name": "Praia de Cesantes",
    "lat": 42.3051,
    "lon": -8.6177,
    "country": "Spain",
    "url": "https://magicseaweed.com/Spain-Portugal-Surf-Forecast/8/"
  },
  {
    "name": "Praia de Faro",
    "lat": 37.0051,
    "lon": -7.9935,
    "country": "Portugal",
    "url": "https://magicseaweed.com/Spain-Portugal-Surf-Forecast/8/"
  },
  {
    "name": "Praia de Labruge",
    "lat": 41.2769,
    "lon": -8.729,
    "country": "Portugal",
    "url": "https://magicseaweed.com/Spain-Portugal-Surf-Forecast/8/"
  },
  {
    "name": "Praia de Lavadores",
    "lat": 41.1294,
    "lon": -8.6689,
    "country": "Portugal",
    "url": "https://magicseaweed.com/Spain-Portugal-Surf-Forecast/8/"
  },
  {
    "name": "Praia de Mira",
    "lat": 40.4561,
    "lon": -8.806,
    "country": "Portugal",
    "url": "https://magicseaweed.com/Spain-Portugal-Surf-Forecast/8/"
  },
  {
    "name": "Praia de Muíños",
    "lat": 42.175,
    "lon": -8.8144,
    "country": "Spain",
    "url": "https://magicseaweed.com/Spain-Portugal-Surf-Forecast/8/"
  },
  {
    "name": "Praia de Nossa Senhora",
    "lat": 37.5303,
    "lon": -8.7866,
    "country": "Portugal",
    "url": "https://magicseaweed.com/Spain-Portugal-Surf-Forecast/8/"
  },
  {
    "name": "Praia de Paramos",
    "lat": 40.9771,
    "lon": -8.6507,
    "country": "Portugal",
    "url": "https://magicseaweed.com/Spain-Portugal-Surf-Forecast/8/"
  },
  {
    "name": "Praia de Peizás",
    "lat": 43.5884,
    "lon": -7.279,
    "country": "Spain",
    "url": "https://magicseaweed.com/Spain-Portugal-Surf-Forecast/8/"
  },
  {
    "name": "Praia de Riazor",
    "lat": 43.3689,
    "lon": -8.4115,
    "country": "Spain",
    "url": "https://magicseaweed.com/Spain-Portugal-Surf-Forecast/8/"
  },
  {
    "name": "Praia de Sabon",
    "lat": 43.3292,
    "lon": -8.5077,
    "country": "Spain",
    "url": "https://magicseaweed.com/Spain-Portugal-Surf-Forecast/8/"
  },
  {
    "name": "Praia de Salema",
    "lat": 37.0652,
    "lon": -8.8244,
    "country": "Portugal",
    "url": "https://magicseaweed.com/Spain-Portugal-Surf-Forecast/8/"
  },
  {
    "name": "Praia de Samil",
    "lat": 42.2119,
    "lon": -8.7761,
    "country": "Spain",
    "url": "https://magicseaweed.com/Spain-Portugal-Surf-Forecast/8/"
  },
  {
    "name": "Praia de San Martiño",
    "lat": 42.2017,
    "lon": -8.9045,
    "country": "Spain",
    "url": "https://magicseaweed.com/Spain-Portugal-Surf-Forecast/8/"
  },
  {
    "name": "Praia de Santa Comba",
    "lat": 43.5565,
    "lon": -8.2901,
    "country": "Spain",
    "url": "https://magicseaweed.com/Spain-Portugal-Surf-Forecast/8/"
  },
  {
    "name": "Praia de Santa Rita",
    "lat": 39.1706,
    "lon": -9.3603,
    "country": "Portugal",
    "url": "https://magicseaweed.com/Spain-Portugal-Surf-Forecast/8/"
  },
  {
    "name": "Praia de Torre",
    "lat": 38.6757,
    "lon": -9.3228,
    "country": "Portugal",
    "url": "https://magicseaweed.com/Spain-Portugal-Surf-Forecast/8/"
  },
  {
    "name": "Praia do Abano",
    "lat": 38.7428,
    "lon": -9.4731,
    "country": "Portugal",
    "url": "https://magicseaweed.com/Spain-Portugal-Surf-Forecast/8/"
  },
  {
    "name": "Praia do Areão",
    "lat": 38.0081,
    "lon": -8.8465,
    "country": "Portugal",
    "url": "https://magicseaweed.com/Spain-Portugal-Surf-Forecast/8/"
  },
  {
    "name": "Praia do Areia do Mastro",
    "lat": 38.4372,
    "lon": -9.2097,
    "country": "Portugal",
    "url": "https://magicseaweed.com/Spain-Portugal-Surf-Forecast/8/"
  },
  {
    "name": "Praia do Barbas",
    "lat": 38.6441,
    "lon": -9.2433,
    "country": "Portugal",
    "url": "https://magicseaweed.com/Spain-Portugal-Surf-Forecast/8/"
  },
  {
    "name": "Praia do Barranco",
    "lat": 37.0422,
    "lon": -8.8948,
    "country": "Portugal",
    "url": "https://magicseaweed.com/Spain-Portugal-Surf-Forecast/8/"
  },
  {
    "name": "Praia do Brejo Largo",
    "lat": 37.6747,
    "lon": -8.7957,
    "country": "Portugal",
    "url": "https://magicseaweed.com/Spain-Portugal-Surf-Forecast/8/"
  },
  {
    "name": "Praia do Burgau",
    "lat": 37.0716,
    "lon": -8.7754,
    "country": "Portugal",
    "url": "https://magicseaweed.com/Spain-Portugal-Surf-Forecast/8/"
  },
  {
    "name": "Praia do Burrinho",
    "lat": 37.8775,
    "lon": -8.7962,
    "country": "Portugal",
    "url": "https://magicseaweed.com/Spain-Portugal-Surf-Forecast/8/"
  },
  {
    "name": "Praia do Carvoeiro",
    "lat": 37.0959,
    "lon": -8.4724,
    "country": "Portugal",
    "url": "https://magicseaweed.com/Spain-Portugal-Surf-Forecast/8/"
  },
  {
    "name": "Praia do Castelo",
    "lat": 38.6129,
    "lon": -9.2182,
    "country": "Portugal",
    "url": "https://magicseaweed.com/Spain-Portugal-Surf-Forecast/8/"
  },
  {
    "name": "Praia do Guincho",
    "lat": 38.7348,
    "lon": -9.4754,
    "country": "Portugal",
    "url": "https://magicseaweed.com/Spain-Portugal-Surf-Forecast/8/"
  },
  {
    "name": "Praia do Lago",
    "lat": 43.7097,
    "lon": -7.4781,
    "country": "Spain",
    "url": "https://magicseaweed.com/Spain-Portugal-Surf-Forecast/8/"
  },
  {
    "name": "Praia do Magoito",
    "lat": 38.8636,
    "lon": -9.4492,
    "country": "Portugal",
    "url": "https://magicseaweed.com/Spain-Portugal-Surf-Forecast/8/"
  },
  {
    "name": "Praia do Marreco",
    "lat": 41.2354,
    "lon": -8.724,
    "country": "Portugal",
    "url": "https://magicseaweed.com/Spain-Portugal-Surf-Forecast/8/"
  },
  {
    "name": "Praia do Martinhal",
    "lat": 37.0186,
    "lon": -8.9265,
    "country": "Portugal",
    "url": "https://magicseaweed.com/Spain-Portugal-Surf-Forecast/8/"
  },
  {
    "name": "Praia do Mirouço",
    "lat": 37.1361,
    "lon": -8.9186,
    "country": "Portugal",
    "url": "https://magicseaweed.com/Spain-Portugal-Surf-Forecast/8/"
  },
  {
    "name": "Praia do Norte (Nazaré)",
    "lat": 39.6101,
    "lon": -9.0874,
    "country": "Portugal",
    "url": "https://magicseaweed.com/Spain-Portugal-Surf-Forecast/8/"
  },
  {
    "name": "Praia do Pescador",
    "lat": 38.6092,
    "lon": -9.2149,
    "country": "Portugal",
    "url": "https://magicseaweed.com/Spain-Portugal-Surf-Forecast/8/"
  },
  {
    "name": "Praia do Porto Novo",
    "lat": 39.1785,
    "lon": -9.3564,
    "country": "Portugal",
    "url": "https://magicseaweed.com/Spain-Portugal-Surf-Forecast/8/"
  },
  {
    "name": "Praia do Raso",
    "lat": 43.4256,
    "lon": -8.2195,
    "country": "Spain",
    "url": "https://magicseaweed.com/Spain-Portugal-Surf-Forecast/8/"
  },
  {
    "name": "Praia do Rei",
    "lat": 38.6057,
    "lon": -9.2138,
    "country": "Portugal",
    "url": "https://magicseaweed.com/Spain-Portugal-Surf-Forecast/8/"
  },
  {
    "name": "Praia do Riás",
    "lat": 43.2936,
    "lon": -8.7472,
    "country": "Spain",
    "url": "https://magicseaweed.com/Spain-Portugal-Surf-Forecast/8/"
  },
  {
    "name": "Praia do Rodízio",
    "lat": 38.821,
    "lon": -9.4756,
    "country": "Portugal",
    "url": "https://magicseaweed.com/Spain-Portugal-Surf-Forecast/8/"
  },
  {
    "name": "Praia do Telheiro",
    "lat": 37.0455,
    "lon": -8.9787,
    "country": "Portugal",
    "url": "https://magicseaweed.com/Spain-Portugal-Surf-Forecast/8/"
  },
  {
    "name": "Praia do Vao",
    "lat": 42.1986,
    "lon": -8.7917,
    "country": "Spain",
    "url": "https://magicseaweed.com/Spain-Portugal-Surf-Forecast/8/"
  },
  {
    "name": "Praia dos Alteirinhos",
    "lat": 37.5184,
    "lon": -8.7882,
    "country": "Portugal",
    "url": "https://magicseaweed.com/Spain-Portugal-Surf-Forecast/8/"
  },
  {
    "name": "Praia dos Frades",
    "lat": 39.3052,
    "lon": -9.3455,
    "country": "Portugal",
    "url": "https://magicseaweed.com/Spain-Portugal-Surf-Forecast/8/"
  },
  {
    "name": "Praia dos Lagosteiros",
    "lat": 38.4236,
    "lon": -9.2148,
    "country": "Portugal",
    "url": "https://magicseaweed.com/Spain-Portugal-Surf-Forecast/8/"
  },
  {
    "name": "Praia dos Moleiros",
    "lat": 38.847,
    "lon": -9.4585,
    "country": "Portugal",
    "url": "https://magicseaweed.com/Spain-Portugal-Surf-Forecast/8/"
  },
  {
    "name": "Praia dos Mouranitos",
    "lat": 37.1224,
    "lon": -8.9292,
    "country": "Portugal",
    "url": "https://magicseaweed.com/Spain-Portugal-Surf-Forecast/8/"
  },
  {
    "name": "Praia dos Salgados",
    "lat": 37.097,
    "lon": -8.3478,
    "country": "Portugal",
    "url": "https://magicseaweed.com/Spain-Portugal-Surf-Forecast/8/"
  },
  {
    "name": "Praia Fedorento",
    "lat": 41.9101,
    "lon": -8.8764,
    "country": "Spain",
    "url": "https://magicseaweed.com/Spain-Portugal-Surf-Forecast/8/"
  },
  {
    "name": "Praia Formosa",
    "lat": 39.1317,
    "lon": -9.3856,
    "country": "Portugal",
    "url": "https://magicseaweed.com/Spain-Portugal-Surf-Forecast/8/"
  },
  {
    "name": "Praia Grande (South)",
    "lat": 38.8115,
    "lon": -9.4808,
    "country": "Portugal",
    "url": "https://magicseaweed.com/Spain-Portugal-Surf-Forecast/8/"
  },
  {
    "name": "Praia Grande do Rodízio",
    "lat": 38.8214,
    "lon": -9.4741,
    "country": "Portugal",
    "url": "https://magicseaweed.com/Spain-Portugal-Surf-Forecast/8/"
  },
  {
    "name": "Praia Grande Sintra",
    "lat": 38.8161,
    "lon": -9.479,
    "country": "Portugal",
    "url": "https://magicseaweed.com/Spain-Portugal-Surf-Forecast/8/"
  },
  {
    "name": "Praia Nova",
    "lat": 41.5006,
    "lon": -8.7881,
    "country": "Portugal",
    "url": "https://magicseaweed.com/Spain-Portugal-Surf-Forecast/8/"
  },
  {
    "name": "Praia Pequena",
    "lat": 38.8211,
    "lon": -9.475,
    "country": "Portugal",
    "url": "https://magicseaweed.com/Spain-Portugal-Surf-Forecast/8/"
  },
  {
    "name": "Praia Porto Chão",
    "lat": 39.0933,
    "lon": -9.4119,
    "country": "Portugal",
    "url": "https://magicseaweed.com/Spain-Portugal-Surf-Forecast/8/"
  },
  {
    "name": "Praia Sarridal",
    "lat": 43.7341,
    "lon": -7.7764,
    "country": "Spain",
    "url": "https://magicseaweed.com/Spain-Portugal-Surf-Forecast/8/"
  },
  {
    "name": "Praia Velha",
    "lat": 39.7774,
    "lon": -9.0227,
    "country": "Portugal",
    "url": "https://magicseaweed.com/Spain-Portugal-Surf-Forecast/8/"
  },
  {
    "name": "Puerto de Soller",
    "lat": 39.7996,
    "lon": 2.6911,
    "country": "Spain",
    "url": "https://magicseaweed.com/Spain-Portugal-Surf-Forecast/8/"
  },
  {
    "name": "Punta Galea",
    "lat": 43.368,
    "lon": -3.0365,
    "country": "Spain",
    "url": "https://magicseaweed.com/Spain-Portugal-Surf-Forecast/8/"
  },
  {
    "name": "Punta Prima - Menorca",
    "lat": 39.8133,
    "lon": 4.2811,
    "country": "Spain",
    "url": "https://magicseaweed.com/Spain-Portugal-Surf-Forecast/8/"
  },
  {
    "name": "Razo",
    "lat": 43.2941,
    "lon": -8.6981,
    "country": "Spain",
    "url": "https://magicseaweed.com/Spain-Portugal-Surf-Forecast/8/"
  },
  {
    "name": "Reinante",
    "lat": 43.5544,
    "lon": -7.1679,
    "country": "Spain",
    "url": "https://magicseaweed.com/Spain-Portugal-Surf-Forecast/8/"
  },
  {
    "name": "Ribadesella",
    "lat": 43.4661,
    "lon": -5.0682,
    "country": "Spain",
    "url": "https://magicseaweed.com/Spain-Portugal-Surf-Forecast/8/"
  },
  {
    "name": "Ribeira d'Ilhas",
    "lat": 38.9881,
    "lon": -9.4226,
    "country": "Portugal",
    "url": "https://magicseaweed.com/Spain-Portugal-Surf-Forecast/8/"
  },
  {
    "name": "Ribeira da Janela",
    "lat": 32.8509,
    "lon": -17.1487,
    "country": "Portugal",
    "url": "https://magicseaweed.com/Spain-Portugal-Surf-Forecast/8/"
  },
  {
    "name": "Rio Siera",
    "lat": 42.6478,
    "lon": -9.0379,
    "country": "Spain",
    "url": "https://magicseaweed.com/Spain-Portugal-Surf-Forecast/8/"
  },
  {
    "name": "Rodiles",
    "lat": 43.5357,
    "lon": -5.3847,
    "country": "Spain",
    "url": "https://magicseaweed.com/Spain-Portugal-Surf-Forecast/8/"
  },
  {
    "name": "Sa Conca",
    "lat": 41.7977,
    "lon": 3.0606,
    "country": "Spain",
    "url": "https://magicseaweed.com/Spain-Portugal-Surf-Forecast/8/"
  },
  {
    "name": "Sa Rapita",
    "lat": 39.3609,
    "lon": 2.9574,
    "country": "Spain",
    "url": "https://magicseaweed.com/Spain-Portugal-Surf-Forecast/8/"
  },
  {
    "name": "Sa Rapita",
    "lat": 39.3614,
    "lon": 2.9595,
    "country": "Spain",
    "url": "https://magicseaweed.com/Spain-Portugal-Surf-Forecast/8/"
  },
  {
    "name": "Sagres (South)",
    "lat": 37.0047,
    "lon": -8.9401,
    "country": "Portugal",
    "url": "https://magicseaweed.com/Spain-Portugal-Surf-Forecast/8/"
  },
  {
    "name": "Sagres (Tonel)",
    "lat": 37.0054,
    "lon": -8.9493,
    "country": "Portugal",
    "url": "https://magicseaweed.com/Spain-Portugal-Surf-Forecast/8/"
  },
  {
    "name": "Sagunto",
    "lat": 39.6322,
    "lon": -0.2397,
    "country": "Spain",
    "url": "https://magicseaweed.com/Spain-Portugal-Surf-Forecast/8/"
  },
  {
    "name": "Salinas y Espartal",
    "lat": 43.5824,
    "lon": -5.9541,
    "country": "Spain",
    "url": "https://magicseaweed.com/Spain-Portugal-Surf-Forecast/8/"
  },
  {
    "name": "San Antolin",
    "lat": 43.4433,
    "lon": -4.8711,
    "country": "Spain",
    "url": "https://magicseaweed.com/Spain-Portugal-Surf-Forecast/8/"
  },
  {
    "name": "San Anton",
    "lat": 43.7232,
    "lon": -7.8022,
    "country": "Spain",
    "url": "https://magicseaweed.com/Spain-Portugal-Surf-Forecast/8/"
  },
  {
    "name": "San Cosme",
    "lat": 43.5632,
    "lon": -7.1974,
    "country": "Spain",
    "url": "https://magicseaweed.com/Spain-Portugal-Surf-Forecast/8/"
  },
  {
    "name": "San Lorenzo",
    "lat": 43.5421,
    "lon": -5.6523,
    "country": "Spain",
    "url": "https://magicseaweed.com/Spain-Portugal-Surf-Forecast/8/"
  },
  {
    "name": "San Xorxe",
    "lat": 43.535,
    "lon": -8.2974,
    "country": "Spain",
    "url": "https://magicseaweed.com/Spain-Portugal-Surf-Forecast/8/"
  },
  {
    "name": "Sant Tomas - Menorca",
    "lat": 39.9161,
    "lon": 4.0341,
    "country": "Spain",
    "url": "https://magicseaweed.com/Spain-Portugal-Surf-Forecast/8/"
  },
  {
    "name": "Santa Amaro",
    "lat": 38.6819,
    "lon": -9.3138,
    "country": "Portugal",
    "url": "https://magicseaweed.com/Spain-Portugal-Surf-Forecast/8/"
  },
  {
    "name": "Santa Cruz",
    "lat": 39.135,
    "lon": -9.3849,
    "country": "Portugal",
    "url": "https://magicseaweed.com/Spain-Portugal-Surf-Forecast/8/"
  },
  {
    "name": "Santa Maria de Oia",
    "lat": 41.9998,
    "lon": -8.8818,
    "country": "Spain",
    "url": "https://magicseaweed.com/Spain-Portugal-Surf-Forecast/8/"
  },
  {
    "name": "Santa Marina",
    "lat": 43.4719,
    "lon": -3.7328,
    "country": "Spain",
    "url": "https://magicseaweed.com/Spain-Portugal-Surf-Forecast/8/"
  },
  {
    "name": "Santander (El Sardinero)",
    "lat": 43.4773,
    "lon": -3.7847,
    "country": "Spain",
    "url": "https://magicseaweed.com/Spain-Portugal-Surf-Forecast/8/"
  },
  {
    "name": "São Joao da Caparica",
    "lat": 38.6559,
    "lon": -9.2504,
    "country": "Portugal",
    "url": "https://magicseaweed.com/Spain-Portugal-Surf-Forecast/8/"
  },
  {
    "name": "São Julião",
    "lat": 38.9323,
    "lon": -9.4221,
    "country": "Portugal",
    "url": "https://magicseaweed.com/Spain-Portugal-Surf-Forecast/8/"
  },
  {
    "name": "São Lourenço",
    "lat": 39.0144,
    "lon": -9.425,
    "country": "Portugal",
    "url": "https://magicseaweed.com/Spain-Portugal-Surf-Forecast/8/"
  },
  {
    "name": "São Pedro do Estoril",
    "lat": 38.6935,
    "lon": -9.3697,
    "country": "Portugal",
    "url": "https://magicseaweed.com/Spain-Portugal-Surf-Forecast/8/"
  },
  {
    "name": "São Pedro do Moel",
    "lat": 39.7571,
    "lon": -9.034,
    "country": "Portugal",
    "url": "https://magicseaweed.com/Spain-Portugal-Surf-Forecast/8/"
  },
  {
    "name": "São Torpes",
    "lat": 37.9197,
    "lon": -8.8078,
    "country": "Portugal",
    "url": "https://magicseaweed.com/Spain-Portugal-Surf-Forecast/8/"
  },
  {
    "name": "São Torpes Pier",
    "lat": 37.9242,
    "lon": -8.8092,
    "country": "Portugal",
    "url": "https://magicseaweed.com/Spain-Portugal-Surf-Forecast/8/"
  },
  {
    "name": "Sesimbra",
    "lat": 38.4413,
    "lon": -9.0969,
    "country": "Portugal",
    "url": "https://magicseaweed.com/Spain-Portugal-Surf-Forecast/8/"
  },
  {
    "name": "Sines",
    "lat": 37.97,
    "lon": -8.88,
    "country": "Portugal",
    "url": "https://magicseaweed.com/Spain-Portugal-Surf-Forecast/8/"
  },
  {
    "name": "Sitges",
    "lat": 41.2322,
    "lon": 1.8068,
    "country": "Spain",
    "url": "https://magicseaweed.com/Spain-Portugal-Surf-Forecast/8/"
  },
  {
    "name": "Son Bou - Menorca",
    "lat": 39.8985,
    "lon": 4.0711,
    "country": "Spain",
    "url": "https://magicseaweed.com/Spain-Portugal-Surf-Forecast/8/"
  },
  {
    "name": "Sonora",
    "lat": 36.451,
    "lon": -5.0776,
    "country": "Spain",
    "url": "https://magicseaweed.com/Spain-Portugal-Surf-Forecast/8/"
  },
  {
    "name": "Sopelana",
    "lat": 43.3903,
    "lon": -2.996,
    "country": "Spain",
    "url": "https://magicseaweed.com/Spain-Portugal-Surf-Forecast/8/"
  },
  {
    "name": "Supertubos",
    "lat": 39.3455,
    "lon": -9.365,
    "country": "Portugal",
    "url": "https://magicseaweed.com/Spain-Portugal-Surf-Forecast/8/"
  },
  {
    "name": "S’Agaró",
    "lat": 41.7976,
    "lon": 3.0609,
    "country": "Spain",
    "url": "https://magicseaweed.com/Spain-Portugal-Surf-Forecast/8/"
  },
  {
    "name": "Tapia de Casariego",
    "lat": 43.5676,
    "lon": -6.9494,
    "country": "Spain",
    "url": "https://magicseaweed.com/Spain-Portugal-Surf-Forecast/8/"
  },
  {
    "name": "Torreira",
    "lat": 40.757,
    "lon": -8.7177,
    "country": "Portugal",
    "url": "https://magicseaweed.com/Spain-Portugal-Surf-Forecast/8/"
  },
  {
    "name": "Valdoviño",
    "lat": 43.6146,
    "lon": -8.1581,
    "country": "Spain",
    "url": "https://magicseaweed.com/Spain-Portugal-Surf-Forecast/8/"
  },
  {
    "name": "Vale Figueiras",
    "lat": 37.2489,
    "lon": -8.868,
    "country": "Portugal",
    "url": "https://magicseaweed.com/Spain-Portugal-Surf-Forecast/8/"
  },
  {
    "name": "Verdicio",
    "lat": 43.6266,
    "lon": -5.8789,
    "country": "Spain",
    "url": "https://magicseaweed.com/Spain-Portugal-Surf-Forecast/8/"
  },
  {
    "name": "Viana do Castelo",
    "lat": 41.6776,
    "lon": -8.8357,
    "country": "Portugal",
    "url": "https://magicseaweed.com/Spain-Portugal-Surf-Forecast/8/"
  },
  {
    "name": "Vila do Conde",
    "lat": 41.3512,
    "lon": -8.7562,
    "country": "Portugal",
    "url": "https://magicseaweed.com/Spain-Portugal-Surf-Forecast/8/"
  },
  {
    "name": "Vila Praia de Âncora",
    "lat": 41.8071,
    "lon": -8.8687,
    "country": "Portugal",
    "url": "https://magicseaweed.com/Spain-Portugal-Surf-Forecast/8/"
  },
  {
    "name": "Xago",
    "lat": 43.6064,
    "lon": -5.9223,
    "country": "Spain",
    "url": "https://magicseaweed.com/Spain-Portugal-Surf-Forecast/8/"
  },
  {
    "name": "Xivares",
    "lat": 43.5706,
    "lon": -5.7181,
    "country": "Spain",
    "url": "https://magicseaweed.com/Spain-Portugal-Surf-Forecast/8/"
  },
  {
    "name": "Zambujeria do Mar",
    "lat": 37.5238,
    "lon": -8.7902,
    "country": "Portugal",
    "url": "https://magicseaweed.com/Spain-Portugal-Surf-Forecast/8/"
  },
  {
    "name": "Zarautz",
    "lat": 43.289,
    "lon": -2.1665,
    "country": "Spain",
    "url": "https://magicseaweed.com/Spain-Portugal-Surf-Forecast/8/"
  },
  {
    "name": "Zavial",
    "lat": 37.0452,
    "lon": -8.873,
    "country": "Portugal",
    "url": "https://magicseaweed.com/Spain-Portugal-Surf-Forecast/8/"
  },
  {
    "name": "Zurriola",
    "lat": 43.3272,
    "lon": -1.9768,
    "country": "Spain",
    "url": "https://magicseaweed.com/Spain-Portugal-Surf-Forecast/8/"
  },
  {
    "name": "Algajola",
    "lat": 42.6102,
    "lon": 8.8712,
    "country": "France",
    "url": "https://magicseaweed.com/France-Surf-Forecast/2/"
  },
  {
    "name": "Anse de Pen-hat",
    "lat": 48.2737,
    "lon": -4.6215,
    "country": "France",
    "url": "https://magicseaweed.com/France-Surf-Forecast/2/"
  },
  {
    "name": "Aytré",
    "lat": 46.1225,
    "lon": -1.1261,
    "country": "France",
    "url": "https://magicseaweed.com/France-Surf-Forecast/2/"
  },
  {
    "name": "Baie des Trépassés (Lescoff)",
    "lat": 48.0465,
    "lon": -4.71,
    "country": "France",
    "url": "https://magicseaweed.com/France-Surf-Forecast/2/"
  },
  {
    "name": "Bandol",
    "lat": 43.1334,
    "lon": 5.748,
    "country": "France",
    "url": "https://magicseaweed.com/France-Surf-Forecast/2/"
  },
  {
    "name": "Barzan-Plage",
    "lat": 45.5292,
    "lon": -0.8817,
    "country": "France",
    "url": "https://magicseaweed.com/France-Surf-Forecast/2/"
  },
  {
    "name": "Beauvallon",
    "lat": 43.2908,
    "lon": 6.6112,
    "country": "France",
    "url": "https://magicseaweed.com/France-Surf-Forecast/2/"
  },
  {
    "name": "Belharra Perdun   ",
    "lat": 43.4066,
    "lon": -1.7148,
    "country": "France",
    "url": "https://magicseaweed.com/France-Surf-Forecast/2/"
  },
  {
    "name": "Biarritz Grande Plage",
    "lat": 43.4859,
    "lon": -1.5596,
    "country": "France",
    "url": "https://magicseaweed.com/France-Surf-Forecast/2/"
  },
  {
    "name": "Bidart",
    "lat": 43.4366,
    "lon": -1.5981,
    "country": "France",
    "url": "https://magicseaweed.com/France-Surf-Forecast/2/"
  },
  {
    "name": "Biscarrosse-Plage",
    "lat": 44.4461,
    "lon": -1.258,
    "country": "France",
    "url": "https://magicseaweed.com/France-Surf-Forecast/2/"
  },
  {
    "name": "Blancs-Sablons",
    "lat": 48.3704,
    "lon": -4.7663,
    "country": "France",
    "url": "https://magicseaweed.com/France-Surf-Forecast/2/"
  },
  {
    "name": "Boutrouilles",
    "lat": 48.6589,
    "lon": -4.4022,
    "country": "France",
    "url": "https://magicseaweed.com/France-Surf-Forecast/2/"
  },
  {
    "name": "Calais",
    "lat": 50.9787,
    "lon": 1.8958,
    "country": "France",
    "url": "https://magicseaweed.com/France-Surf-Forecast/2/"
  },
  {
    "name": "Canet Plage",
    "lat": 42.6991,
    "lon": 3.0403,
    "country": "France",
    "url": "https://magicseaweed.com/France-Surf-Forecast/2/"
  },
  {
    "name": "Cannes",
    "lat": 43.5357,
    "lon": 7.0409,
    "country": "France",
    "url": "https://magicseaweed.com/France-Surf-Forecast/2/"
  },
  {
    "name": "Cap de L'Homy",
    "lat": 44.0387,
    "lon": -1.3431,
    "country": "France",
    "url": "https://magicseaweed.com/France-Surf-Forecast/2/"
  },
  {
    "name": "Cap de la Chèvre",
    "lat": 48.1669,
    "lon": -4.5577,
    "country": "France",
    "url": "https://magicseaweed.com/France-Surf-Forecast/2/"
  },
  {
    "name": "Cap Fréhel",
    "lat": 48.6575,
    "lon": -2.3614,
    "country": "France",
    "url": "https://magicseaweed.com/France-Surf-Forecast/2/"
  },
  {
    "name": "Cap Gris-Nez",
    "lat": 50.8708,
    "lon": 1.5906,
    "country": "France",
    "url": "https://magicseaweed.com/France-Surf-Forecast/2/"
  },
  {
    "name": "Cap Saint-Louis",
    "lat": 43.1772,
    "lon": 5.6735,
    "country": "France",
    "url": "https://magicseaweed.com/France-Surf-Forecast/2/"
  },
  {
    "name": "Capbreton (La Piste/VVF)",
    "lat": 43.6445,
    "lon": -1.4474,
    "country": "France",
    "url": "https://magicseaweed.com/France-Surf-Forecast/2/"
  },
  {
    "name": "Capo di Feno",
    "lat": 41.9351,
    "lon": 8.622,
    "country": "France",
    "url": "https://magicseaweed.com/France-Surf-Forecast/2/"
  },
  {
    "name": "Carcans",
    "lat": 45.0845,
    "lon": -1.195,
    "country": "France",
    "url": "https://magicseaweed.com/France-Surf-Forecast/2/"
  },
  {
    "name": "Carnon",
    "lat": 43.5402,
    "lon": 3.9725,
    "country": "France",
    "url": "https://magicseaweed.com/France-Surf-Forecast/2/"
  },
  {
    "name": "Casernes ",
    "lat": 43.7232,
    "lon": -1.4326,
    "country": "France",
    "url": "https://magicseaweed.com/France-Surf-Forecast/2/"
  },
  {
    "name": "Cassis",
    "lat": 43.2122,
    "lon": 5.5368,
    "country": "France",
    "url": "https://magicseaweed.com/France-Surf-Forecast/2/"
  },
  {
    "name": "Chassiron",
    "lat": 46.0479,
    "lon": -1.4186,
    "country": "France",
    "url": "https://magicseaweed.com/France-Surf-Forecast/2/"
  },
  {
    "name": "Ciboure Socoa",
    "lat": 43.3941,
    "lon": -1.6794,
    "country": "France",
    "url": "https://magicseaweed.com/France-Surf-Forecast/2/"
  },
  {
    "name": "Cipiniellu",
    "lat": 41.6869,
    "lon": 8.9166,
    "country": "France",
    "url": "https://magicseaweed.com/France-Surf-Forecast/2/"
  },
  {
    "name": "Collignon",
    "lat": 49.658,
    "lon": -1.5691,
    "country": "France",
    "url": "https://magicseaweed.com/France-Surf-Forecast/2/"
  },
  {
    "name": "Contis-Plage",
    "lat": 44.0927,
    "lon": -1.3281,
    "country": "France",
    "url": "https://magicseaweed.com/France-Surf-Forecast/2/"
  },
  {
    "name": "Cote des Basques",
    "lat": 43.4802,
    "lon": -1.5678,
    "country": "France",
    "url": "https://magicseaweed.com/France-Surf-Forecast/2/"
  },
  {
    "name": "Dalbosc ",
    "lat": 48.341,
    "lon": -4.6333,
    "country": "France",
    "url": "https://magicseaweed.com/France-Surf-Forecast/2/"
  },
  {
    "name": "Dielette",
    "lat": 49.5602,
    "lon": -1.8618,
    "country": "France",
    "url": "https://magicseaweed.com/France-Surf-Forecast/2/"
  },
  {
    "name": "Erretegia",
    "lat": 43.4471,
    "lon": -1.5904,
    "country": "France",
    "url": "https://magicseaweed.com/France-Surf-Forecast/2/"
  },
  {
    "name": "Erromardie",
    "lat": 43.4107,
    "lon": -1.6387,
    "country": "France",
    "url": "https://magicseaweed.com/France-Surf-Forecast/2/"
  },
  {
    "name": "Esclamandes",
    "lat": 43.4029,
    "lon": 6.7322,
    "country": "France",
    "url": "https://magicseaweed.com/France-Surf-Forecast/2/"
  },
  {
    "name": "Etel",
    "lat": 47.6398,
    "lon": -3.2115,
    "country": "France",
    "url": "https://magicseaweed.com/France-Surf-Forecast/2/"
  },
  {
    "name": "Etretat",
    "lat": 49.7075,
    "lon": 0.1984,
    "country": "France",
    "url": "https://magicseaweed.com/France-Surf-Forecast/2/"
  },
  {
    "name": "Eze",
    "lat": 43.7216,
    "lon": 7.3582,
    "country": "France",
    "url": "https://magicseaweed.com/France-Surf-Forecast/2/"
  },
  {
    "name": "Farinole",
    "lat": 42.7362,
    "lon": 9.3439,
    "country": "France",
    "url": "https://magicseaweed.com/France-Surf-Forecast/2/"
  },
  {
    "name": "Figari",
    "lat": 41.4492,
    "lon": 9.0687,
    "country": "France",
    "url": "https://magicseaweed.com/France-Surf-Forecast/2/"
  },
  {
    "name": "Fouesnou",
    "lat": 47.9691,
    "lon": -4.4455,
    "country": "France",
    "url": "https://magicseaweed.com/France-Surf-Forecast/2/"
  },
  {
    "name": "Fréjus",
    "lat": 43.4216,
    "lon": 6.753,
    "country": "France",
    "url": "https://magicseaweed.com/France-Surf-Forecast/2/"
  },
  {
    "name": "Galiote",
    "lat": 43.3936,
    "lon": 6.7317,
    "country": "France",
    "url": "https://magicseaweed.com/France-Surf-Forecast/2/"
  },
  {
    "name": "Gavres",
    "lat": 47.6937,
    "lon": -3.3247,
    "country": "France",
    "url": "https://magicseaweed.com/France-Surf-Forecast/2/"
  },
  {
    "name": "Gigaro",
    "lat": 43.1832,
    "lon": 6.5997,
    "country": "France",
    "url": "https://magicseaweed.com/France-Surf-Forecast/2/"
  },
  {
    "name": "Gohaud   ",
    "lat": 47.1612,
    "lon": -2.1733,
    "country": "France",
    "url": "https://magicseaweed.com/France-Surf-Forecast/2/"
  },
  {
    "name": "Gold Beach",
    "lat": 49.3459,
    "lon": -0.5319,
    "country": "France",
    "url": "https://magicseaweed.com/France-Surf-Forecast/2/"
  },
  {
    "name": "Gouillaud",
    "lat": 46.1673,
    "lon": -1.3742,
    "country": "France",
    "url": "https://magicseaweed.com/France-Surf-Forecast/2/"
  },
  {
    "name": "Gruissan",
    "lat": 43.0967,
    "lon": 3.1158,
    "country": "France",
    "url": "https://magicseaweed.com/France-Surf-Forecast/2/"
  },
  {
    "name": "Guethary",
    "lat": 43.4225,
    "lon": -1.6197,
    "country": "France",
    "url": "https://magicseaweed.com/France-Surf-Forecast/2/"
  },
  {
    "name": "Guethary (Avalanche) ",
    "lat": 43.4272,
    "lon": -1.6124,
    "country": "France",
    "url": "https://magicseaweed.com/France-Surf-Forecast/2/"
  },
  {
    "name": "Guidel (Les Kaolins)",
    "lat": 47.7237,
    "lon": -3.4931,
    "country": "France",
    "url": "https://magicseaweed.com/France-Surf-Forecast/2/"
  },
  {
    "name": "Gwendrez ",
    "lat": 47.9909,
    "lon": -4.4818,
    "country": "France",
    "url": "https://magicseaweed.com/France-Surf-Forecast/2/"
  },
  {
    "name": "Hatainville ",
    "lat": 49.4016,
    "lon": -1.8267,
    "country": "France",
    "url": "https://magicseaweed.com/France-Surf-Forecast/2/"
  },
  {
    "name": "Hendaye Plage",
    "lat": 43.3773,
    "lon": -1.765,
    "country": "France",
    "url": "https://magicseaweed.com/France-Surf-Forecast/2/"
  },
  {
    "name": "Hossegor (La Graviere)",
    "lat": 43.6663,
    "lon": -1.4437,
    "country": "France",
    "url": "https://magicseaweed.com/France-Surf-Forecast/2/"
  },
  {
    "name": "Hossegor (La Nord)",
    "lat": 43.6652,
    "lon": -1.4459,
    "country": "France",
    "url": "https://magicseaweed.com/France-Surf-Forecast/2/"
  },
  {
    "name": "Hossegor (La Sud)",
    "lat": 43.6601,
    "lon": -1.4468,
    "country": "France",
    "url": "https://magicseaweed.com/France-Surf-Forecast/2/"
  },
  {
    "name": "Hourtin",
    "lat": 45.2226,
    "lon": -1.1756,
    "country": "France",
    "url": "https://magicseaweed.com/France-Surf-Forecast/2/"
  },
  {
    "name": "Ilbarritz",
    "lat": 43.4601,
    "lon": -1.5811,
    "country": "France",
    "url": "https://magicseaweed.com/France-Surf-Forecast/2/"
  },
  {
    "name": "Kerguelen",
    "lat": 47.7025,
    "lon": -3.402,
    "country": "France",
    "url": "https://magicseaweed.com/France-Surf-Forecast/2/"
  },
  {
    "name": "Kerloch",
    "lat": 48.2499,
    "lon": -4.5573,
    "country": "France",
    "url": "https://magicseaweed.com/France-Surf-Forecast/2/"
  },
  {
    "name": "L'Amelie",
    "lat": 45.4848,
    "lon": -1.1536,
    "country": "France",
    "url": "https://magicseaweed.com/France-Surf-Forecast/2/"
  },
  {
    "name": "L'Anse du Brick",
    "lat": 49.6689,
    "lon": -1.4875,
    "country": "France",
    "url": "https://magicseaweed.com/France-Surf-Forecast/2/"
  },
  {
    "name": "L'Aubraie",
    "lat": 46.5138,
    "lon": -1.8224,
    "country": "France",
    "url": "https://magicseaweed.com/France-Surf-Forecast/2/"
  },
  {
    "name": "L'Ermitage",
    "lat": 47.2053,
    "lon": -2.1638,
    "country": "France",
    "url": "https://magicseaweed.com/France-Surf-Forecast/2/"
  },
  {
    "name": "L'Estacade",
    "lat": 43.6535,
    "lon": -1.4466,
    "country": "France",
    "url": "https://magicseaweed.com/France-Surf-Forecast/2/"
  },
  {
    "name": "L'Horizon",
    "lat": 44.6384,
    "lon": -1.2648,
    "country": "France",
    "url": "https://magicseaweed.com/France-Surf-Forecast/2/"
  },
  {
    "name": "La Barre",
    "lat": 43.5268,
    "lon": -1.5263,
    "country": "France",
    "url": "https://magicseaweed.com/France-Surf-Forecast/2/"
  },
  {
    "name": "La Ciotat",
    "lat": 43.18,
    "lon": 5.6202,
    "country": "France",
    "url": "https://magicseaweed.com/France-Surf-Forecast/2/"
  },
  {
    "name": "La Corniche",
    "lat": 43.3277,
    "lon": 5.1175,
    "country": "France",
    "url": "https://magicseaweed.com/France-Surf-Forecast/2/"
  },
  {
    "name": "La Côte Sauvage",
    "lat": 47.5161,
    "lon": -3.1537,
    "country": "France",
    "url": "https://magicseaweed.com/France-Surf-Forecast/2/"
  },
  {
    "name": "La Côte Sauvage",
    "lat": 45.7116,
    "lon": -1.2404,
    "country": "France",
    "url": "https://magicseaweed.com/France-Surf-Forecast/2/"
  },
  {
    "name": "La Coudoulière",
    "lat": 43.0941,
    "lon": 5.8051,
    "country": "France",
    "url": "https://magicseaweed.com/France-Surf-Forecast/2/"
  },
  {
    "name": "La Courance",
    "lat": 47.2424,
    "lon": -2.3156,
    "country": "France",
    "url": "https://magicseaweed.com/France-Surf-Forecast/2/"
  },
  {
    "name": "La Couronne",
    "lat": 43.3258,
    "lon": 5.0574,
    "country": "France",
    "url": "https://magicseaweed.com/France-Surf-Forecast/2/"
  },
  {
    "name": "La Flotte",
    "lat": 46.1873,
    "lon": -1.3175,
    "country": "France",
    "url": "https://magicseaweed.com/France-Surf-Forecast/2/"
  },
  {
    "name": "La Gamelle  ",
    "lat": 48.0083,
    "lon": -4.5476,
    "country": "France",
    "url": "https://magicseaweed.com/France-Surf-Forecast/2/"
  },
  {
    "name": "La Grande Cote",
    "lat": 45.6593,
    "lon": -1.1338,
    "country": "France",
    "url": "https://magicseaweed.com/France-Surf-Forecast/2/"
  },
  {
    "name": "La Jenny",
    "lat": 44.8572,
    "lon": -1.2266,
    "country": "France",
    "url": "https://magicseaweed.com/France-Surf-Forecast/2/"
  },
  {
    "name": "La Madrague",
    "lat": 43.512,
    "lon": -1.5366,
    "country": "France",
    "url": "https://magicseaweed.com/France-Surf-Forecast/2/"
  },
  {
    "name": "La Mauvaise Grève",
    "lat": 48.6934,
    "lon": -4.0873,
    "country": "France",
    "url": "https://magicseaweed.com/France-Surf-Forecast/2/"
  },
  {
    "name": "La Palue ",
    "lat": 48.204,
    "lon": -4.5578,
    "country": "France",
    "url": "https://magicseaweed.com/France-Surf-Forecast/2/"
  },
  {
    "name": "La Pointe",
    "lat": 44.6209,
    "lon": -1.2456,
    "country": "France",
    "url": "https://magicseaweed.com/France-Surf-Forecast/2/"
  },
  {
    "name": "La Salie",
    "lat": 44.5149,
    "lon": -1.2579,
    "country": "France",
    "url": "https://magicseaweed.com/France-Surf-Forecast/2/"
  },
  {
    "name": "La Sauzaie ",
    "lat": 46.6362,
    "lon": -1.8931,
    "country": "France",
    "url": "https://magicseaweed.com/France-Surf-Forecast/2/"
  },
  {
    "name": "La Torche ",
    "lat": 47.8408,
    "lon": -4.3512,
    "country": "France",
    "url": "https://magicseaweed.com/France-Surf-Forecast/2/"
  },
  {
    "name": "La Tour",
    "lat": 43.5435,
    "lon": 7.13,
    "country": "France",
    "url": "https://magicseaweed.com/France-Surf-Forecast/2/"
  },
  {
    "name": "Labenne-Ocean",
    "lat": 43.5997,
    "lon": -1.4751,
    "country": "France",
    "url": "https://magicseaweed.com/France-Surf-Forecast/2/"
  },
  {
    "name": "Lacanau",
    "lat": 45.0023,
    "lon": -1.2049,
    "country": "France",
    "url": "https://magicseaweed.com/France-Surf-Forecast/2/"
  },
  {
    "name": "Lafitenia",
    "lat": 43.4164,
    "lon": -1.6294,
    "country": "France",
    "url": "https://magicseaweed.com/France-Surf-Forecast/2/"
  },
  {
    "name": "Lampaul Ploudalmezeau",
    "lat": 48.57,
    "lon": -4.65,
    "country": "France",
    "url": "https://magicseaweed.com/France-Surf-Forecast/2/"
  },
  {
    "name": "Le Club ",
    "lat": 43.4994,
    "lon": -1.5454,
    "country": "France",
    "url": "https://magicseaweed.com/France-Surf-Forecast/2/"
  },
  {
    "name": "Le Crohot des Cavales",
    "lat": 45.1147,
    "lon": -1.1902,
    "country": "France",
    "url": "https://magicseaweed.com/France-Surf-Forecast/2/"
  },
  {
    "name": "Le Dossen ",
    "lat": 48.6984,
    "lon": -4.0683,
    "country": "France",
    "url": "https://magicseaweed.com/France-Surf-Forecast/2/"
  },
  {
    "name": "Le Gouerou  ",
    "lat": 48.4574,
    "lon": -4.7731,
    "country": "France",
    "url": "https://magicseaweed.com/France-Surf-Forecast/2/"
  },
  {
    "name": "Le Grand Crohot",
    "lat": 44.7999,
    "lon": -1.2378,
    "country": "France",
    "url": "https://magicseaweed.com/France-Surf-Forecast/2/"
  },
  {
    "name": "Le Gurp",
    "lat": 45.435,
    "lon": -1.1557,
    "country": "France",
    "url": "https://magicseaweed.com/France-Surf-Forecast/2/"
  },
  {
    "name": "Le Kérou",
    "lat": 47.7675,
    "lon": -3.5624,
    "country": "France",
    "url": "https://magicseaweed.com/France-Surf-Forecast/2/"
  },
  {
    "name": "Le Lizay",
    "lat": 46.2564,
    "lon": -1.5163,
    "country": "France",
    "url": "https://magicseaweed.com/France-Surf-Forecast/2/"
  },
  {
    "name": "Le Penon",
    "lat": 43.7098,
    "lon": -1.438,
    "country": "France",
    "url": "https://magicseaweed.com/France-Surf-Forecast/2/"
  },
  {
    "name": "Le Petit Minou ",
    "lat": 48.3378,
    "lon": -4.6177,
    "country": "France",
    "url": "https://magicseaweed.com/France-Surf-Forecast/2/"
  },
  {
    "name": "Le Pin Sec",
    "lat": 45.2678,
    "lon": -1.1697,
    "country": "France",
    "url": "https://magicseaweed.com/France-Surf-Forecast/2/"
  },
  {
    "name": "Le Porge",
    "lat": 44.8944,
    "lon": -1.221,
    "country": "France",
    "url": "https://magicseaweed.com/France-Surf-Forecast/2/"
  },
  {
    "name": "Le Prado",
    "lat": 43.2561,
    "lon": 5.3718,
    "country": "France",
    "url": "https://magicseaweed.com/France-Surf-Forecast/2/"
  },
  {
    "name": "Le Prevent",
    "lat": 43.6508,
    "lon": -1.4468,
    "country": "France",
    "url": "https://magicseaweed.com/France-Surf-Forecast/2/"
  },
  {
    "name": "Le Rouet",
    "lat": 43.3334,
    "lon": 5.1753,
    "country": "France",
    "url": "https://magicseaweed.com/France-Surf-Forecast/2/"
  },
  {
    "name": "Le Rozel",
    "lat": 49.4812,
    "lon": -1.8474,
    "country": "France",
    "url": "https://magicseaweed.com/France-Surf-Forecast/2/"
  },
  {
    "name": "Le Ruppione",
    "lat": 41.8323,
    "lon": 8.783,
    "country": "France",
    "url": "https://magicseaweed.com/France-Surf-Forecast/2/"
  },
  {
    "name": "Le Santocha",
    "lat": 43.6479,
    "lon": -1.447,
    "country": "France",
    "url": "https://magicseaweed.com/France-Surf-Forecast/2/"
  },
  {
    "name": "Le Truc Vert",
    "lat": 44.7142,
    "lon": -1.2546,
    "country": "France",
    "url": "https://magicseaweed.com/France-Surf-Forecast/2/"
  },
  {
    "name": "Le Verdon",
    "lat": 45.5708,
    "lon": -1.0614,
    "country": "France",
    "url": "https://magicseaweed.com/France-Surf-Forecast/2/"
  },
  {
    "name": "Le VVF   ",
    "lat": 43.4953,
    "lon": -1.5485,
    "country": "France",
    "url": "https://magicseaweed.com/France-Surf-Forecast/2/"
  },
  {
    "name": "Les Alcyons",
    "lat": 43.4269,
    "lon": -1.6111,
    "country": "France",
    "url": "https://magicseaweed.com/France-Surf-Forecast/2/"
  },
  {
    "name": "Les Allassins",
    "lat": 45.8714,
    "lon": -1.266,
    "country": "France",
    "url": "https://magicseaweed.com/France-Surf-Forecast/2/"
  },
  {
    "name": "Les Amiets",
    "lat": 48.6958,
    "lon": -4.1406,
    "country": "France",
    "url": "https://magicseaweed.com/France-Surf-Forecast/2/"
  },
  {
    "name": "Les Boulassiers ",
    "lat": 45.9992,
    "lon": -1.3121,
    "country": "France",
    "url": "https://magicseaweed.com/France-Surf-Forecast/2/"
  },
  {
    "name": "Les Bourdaines",
    "lat": 43.6976,
    "lon": -1.4409,
    "country": "France",
    "url": "https://magicseaweed.com/France-Surf-Forecast/2/"
  },
  {
    "name": "Les Cavaliers",
    "lat": 43.5233,
    "lon": -1.5273,
    "country": "France",
    "url": "https://magicseaweed.com/France-Surf-Forecast/2/"
  },
  {
    "name": "Les Conches/Bud Bud",
    "lat": 46.3858,
    "lon": -1.4946,
    "country": "France",
    "url": "https://magicseaweed.com/France-Surf-Forecast/2/"
  },
  {
    "name": "Les Corsaires  ",
    "lat": 43.5072,
    "lon": -1.5398,
    "country": "France",
    "url": "https://magicseaweed.com/France-Surf-Forecast/2/"
  },